{"version": 0.6, "generator": "Overpass API 0.7.56.9 76e5016d", "osm3s": {"timestamp_osm_base": "2021-09-21T11:50:42Z", "copyright": "The data included in this document is from www.openstreetmap.org. The data is made available under ODbL."}, "elements": [{"type": "node", "id": 30334728, "lat": 56.0625363, "lon": 12.1363259, "tags": {"name": "Vejby", "public_transport": "station", "railway": "station", "railway:ref": "Vej", "wikidata": "Q12343746"}}, {"type": "node", "id": 30334748, "lat": 56.0231203, "lon": 12.2054546, "tags": {"name": "Helsinge", "public_transport": "station", "railway": "station", "railway:ref": "Hlg", "wikidata": "Q12316163"}}, {"type": "node", "id": 30334760, "lat": 55.9974247, "lon": 12.2860904, "tags": {"name": "Kagerup", "public_transport": "station", "railway": "station", "railway:ref": "Kgg", "wikidata": "Q12321032"}}, {"type": "node", "id": 60123928, "lat": 55.9231206, "lon": 12.0733664, "tags": {"name": "\u00d8lsted", "public_transport": "station", "railway": "station", "railway:ref": "\u00d8ls", "wheelchair": "yes", "wikidata": "Q12342006"}}, {"type": "node", "id": 270506611, "lat": 56.0593898, "lon": 12.0779859, "tags": {"name": "Tisvildeleje", "public_transport": "station", "railway": "station", "railway:ref": "Tvl", "wikidata": "Q12339449"}}, {"type": "node", "id": 290264375, "lat": 55.8867645, "lon": 12.2021191, "tags": {"name": "G\u00f8rl\u00f8se", "public_transport": "station", "railway": "station", "railway:ref": "G\u00f8r", "wikidata": "Q12314810"}}, {"type": "node", "id": 496383856, "lat": 55.8649715, "lon": 12.3828421, "tags": {"name": "Blovstr\u00f8d H", "public_transport": "station", "railway": "station"}}, {"type": "node", "id": 587738050, "lat": 55.8349843, "lon": 12.0661855, "tags": {"light_rail": "yes", "name": "Frederikssund", "public_transport": "station", "railway": "station", "railway:ref": "Fs", "toilets": "no", "wheelchair": "yes", "wikidata": "Q2350881"}}, {"type": "node", "id": 587738110, "lat": 55.7957669, "lon": 12.1593166, "tags": {"light_rail": "yes", "name": "\u00d8lstykke", "public_transport": "station", "railway": "station", "railway:ref": "\u00d8l", "station": "light_rail", "wikidata": "Q8079213"}}, {"type": "node", "id": 597771482, "lat": 55.8121053, "lon": 12.3737085, "tags": {"light_rail": "yes", "name": "Farum", "public_transport": "station", "railway": "station", "railway:ref": "Fm", "station": "light_rail", "wheelchair": "yes", "wheelchair:description": "Hele forpladsen til stationsomr\u00e5det er belagt med sm\u00e5 brosten. Det g\u00f8r det meget sv\u00e6rt at komme til og fra stationen.", "wikidata": "Q2494694"}}, {"type": "node", "id": 606290640, "lat": 55.9684351, "lon": 12.0194657, "tags": {"name": "Frederiksv\u00e6rk", "public_transport": "station", "railway": "station", "railway:ref": "Frv", "wheelchair": "yes", "wikidata": "Q12312837"}}, {"type": "node", "id": 974395704, "lat": 56.0728918, "lon": 12.2867797, "tags": {"name": "Gr\u00e6sted", "public_transport": "station", "railway": "station", "railway:ref": "Gr\u00e6", "wikidata": "Q12314467"}}, {"type": "node", "id": 981472227, "lat": 55.9425356, "lon": 12.3111932, "tags": {"name": "Slotspavillonen", "public_transport": "station", "railway": "station", "railway:ref": "Spg", "wheelchair": "limited", "wikidata": "Q12336094"}}, {"type": "node", "id": 981756634, "lat": 56.0306161, "lon": 12.3172416, "tags": {"name": "M\u00e5rum", "public_transport": "station", "railway": "station", "railway:ref": "Mmg", "wikidata": "Q12328043"}}, {"type": "node", "id": 998154790, "lat": 55.9349214, "lon": 12.0465329, "tags": {"name": "Kregme", "public_transport": "station", "railway": "station", "railway:ref": "Krf", "wheelchair": "yes", "wikidata": "Q12322837"}}, {"type": "node", "id": 998155107, "lat": 55.9073352, "lon": 12.1495823, "tags": {"name": "Sk\u00e6vinge", "public_transport": "station", "railway": "station", "railway:ref": "Skv", "wheelchair": "yes", "wikidata": "Q12335965"}}, {"type": "node", "id": 998155928, "lat": 55.8935491, "lon": 12.2795272, "tags": {"name": "Br\u00f8deskov", "public_transport": "station", "railway": "station", "railway:ref": "Bsk", "wheelchair": "yes", "wikidata": "Q12304533"}}, {"type": "node", "id": 998228805, "lat": 55.9657624, "lon": 11.8465877, "tags": {"name": "Hundested Havn", "public_transport": "station", "railway": "station", "railway:ref": "Huh", "wheelchair": "yes", "wikidata": "Q12317452"}}, {"type": "node", "id": 998228961, "lat": 55.9767852, "lon": 11.9136932, "tags": {"name": "\u00d8sterbjerg", "public_transport": "station", "railway": "station", "railway:ref": "\u00d8sf", "wikidata": "Q12342111"}}, {"type": "node", "id": 998229009, "lat": 55.991433, "lon": 11.971413, "tags": {"name": "Melby", "public_transport": "station", "railway": "station", "railway:ref": "Mel", "wheelchair": "yes", "wikidata": "Q12326581"}}, {"type": "node", "id": 998776421, "lat": 56.0982157, "lon": 12.356426, "tags": {"name": "Firh\u00f8j", "public_transport": "station", "railway": "station", "railway:ref": "Fir", "wikidata": "Q12311425"}}, {"type": "node", "id": 1733449578, "lat": 55.9270287, "lon": 12.311414, "tags": {"light_rail": "yes", "name": "Hiller\u00f8d", "operator": "DSB S-tog", "public_transport": "station", "railway": "station", "railway:ref": "Hi", "station": "light_rail", "wheelchair": "yes"}}, {"type": "node", "id": 1797765147, "lat": 55.9276718, "lon": 12.3113945, "tags": {"name": "Hiller\u00f8d", "operator": "Nordsj\u00e6llands Lokalbaner", "public_transport": "station", "railway": "station", "railway:ref": "Hi", "train": "yes", "wheelchair": "yes"}}, {"type": "node", "id": 2125774244, "lat": 55.9854238, "lon": 11.9427382, "tags": {"name": "Dyssekilde", "public_transport": "station", "railway": "station", "railway:ref": "Dsk", "wikidata": "Q12309132"}}, {"type": "node", "id": 2318879730, "lat": 55.9636015, "lon": 11.8527389, "tags": {"name": "Hundested", "public_transport": "station", "railway": "station", "railway:ref": "Hun", "wikidata": "Q2063161"}}, {"type": "node", "id": 2319475694, "lat": 56.123614, "lon": 12.3022774, "tags": {"name": "Gilleleje", "public_transport": "station", "railway": "station", "railway:ref": "Gll", "wikidata": "Q12313890"}}, {"type": "node", "id": 5672905559, "lat": 55.8582756, "lon": 12.3771815, "tags": {"name": "Teglv\u00e6rket", "public_transport": "station", "railway": "station"}}, {"type": "node", "id": 5696961214, "lat": 55.8710875, "lon": 12.3569533, "tags": {"light_rail": "yes", "name": "Aller\u00f8d", "old_name": "Liller\u00f8d", "operator": "DSB", "public_transport": "station", "railway": "station", "railway:ref": "Li", "station": "light_rail", "wheelchair": "yes", "wikidata": "Q4596270"}}]}