{"version": 0.6, "generator": "Overpass API 0.7.56.9 76e5016d", "osm3s": {"timestamp_osm_base": "2021-09-21T11:44:26Z", "copyright": "The data included in this document is from www.openstreetmap.org. The data is made available under ODbL."}, "elements": [{"type": "node", "id": 207599981, "lat": 55.5068824, "lon": 13.232315, "tags": {"name": "Svedala station", "public_transport": "stop_position", "railway": "station", "railway:track_ref": "1", "ref": "Sea", "short_name": "Svedala", "train": "yes", "wikidata": "Q10684634"}}, {"type": "node", "id": 207613696, "lat": 55.4801542, "lon": 13.4985568, "tags": {"name": "Skurup", "public_transport": "stop_position", "railway": "station", "ref": "Srp", "train": "yes", "wikidata": "Q10670750"}}, {"type": "node", "id": 207613748, "lat": 55.4743284, "lon": 13.5874246, "tags": {"name": "Rydsg\u00e5rd", "public_transport": "stop_position", "railway": "station", "ref": "Rdg", "train": "yes"}}, {"type": "node", "id": 207613973, "lat": 55.4285399, "lon": 13.7176172, "tags": {"name": "Svarte", "public_transport": "stop_position", "railway": "station", "ref": "Ste", "train": "yes"}}, {"type": "node", "id": 248911831, "lat": 55.7512002, "lon": 13.2003689, "tags": {"name": "St\u00e5ngby", "public_transport": "stop_position", "railway": "station", "railway:track_ref": "1", "ref": "Stb", "train": "yes"}}, {"type": "node", "id": 275435720, "lat": 55.6577439, "lon": 13.1088815, "tags": {"name": "\u00c5karp", "public_transport": "stop_position", "railway": "station", "railway:track_ref": "2", "ref": "\u00c5k", "train": "yes"}}, {"type": "node", "id": 3167771279, "lat": 55.7788139, "lon": 13.2439448, "tags": {"name": "\u00d6rtofta", "railway": "station", "ref": "\u00d6"}}, {"type": "node", "id": 3168442679, "lat": 55.7269551, "lon": 13.1675131, "tags": {"name": "Gunnesbo", "public_transport": "station", "railway": "station", "ref": "Gnb", "wikidata": "Q10510895"}}, {"type": "node", "id": 3168442681, "lat": 55.7943641, "lon": 13.1114039, "tags": {"name": "K\u00e4vlinge", "public_transport": "station", "railway": "station", "ref": "Kg", "wheelchair": "yes", "wikidata": "Q10551964"}}, {"type": "node", "id": 3888983737, "lat": 55.4676727, "lon": 13.13268, "tags": {"name": "\u00d6stra Grevie", "public_transport": "station", "railway": "station", "ref": "\u00d6g"}}, {"type": "node", "id": 5248540702, "lat": 55.7067251, "lon": 13.1863839, "tags": {"name": "Lund centralstation", "public_transport": "station", "railway": "station", "ref": "Lu", "short_name": "Lund C", "train": "yes", "wheelchair": "yes", "wikidata": "Q766707", "wikipedia": "sv:Lunds centralstation"}}, {"type": "node", "id": 8458145827, "lat": 55.7752126, "lon": 13.0972959, "tags": {"name": "Furulund", "public_transport": "station", "railway": "station", "train": "yes"}}]}