{"version": 0.6, "generator": "Overpass API 0.7.56.9 76e5016d", "osm3s": {"timestamp_osm_base": "2021-09-21T11:14:58Z", "copyright": "The data included in this document is from www.openstreetmap.org. The data is made available under ODbL."}, "elements": [{"type": "node", "id": 251444308, "lat": 55.8519196, "lon": 12.5684453, "tags": {"amenity": "restaurant", "cuisine": "regional", "fvst:navnelbnr": "552307", "name": "Cafe Rosenhuset", "opening_hours": "09:00-21:00", "phone": "+45 45662040", "website": "http://rosenhuset.dk/"}}, {"type": "node", "id": 374449801, "lat": 55.9146687, "lon": 12.6869998, "tags": {"amenity": "restaurant", "name": "Pr\u00e4stasv\u00e4ngen"}}, {"type": "node", "id": 374452416, "lat": 55.9103606, "lon": 12.6740505, "tags": {"amenity": "restaurant", "name": "Hamnkrogen"}}, {"type": "node", "id": 374453685, "lat": 55.9163826, "lon": 12.6955678, "tags": {"amenity": "restaurant", "name": "Bistro Spirit of Hven"}}, {"type": "node", "id": 459473616, "lat": 55.9127021, "lon": 12.6890881, "tags": {"amenity": "restaurant", "name": "Tuna krog"}}, {"type": "node", "id": 465190592, "lat": 55.9101534, "lon": 12.6727057, "tags": {"amenity": "restaurant", "name": "Fiskboden"}}, {"type": "node", "id": 529742389, "lat": 55.8130358, "lon": 12.478456, "tags": {"amenity": "restaurant", "cuisine": "italian", "fvst:navnelbnr": "993249", "name": "La Vecchia Enoteca", "opening_hours": "Su-Th 12:00-22:00; Fr-Sa 12:00-22:30", "opening_hours:kitchen": "12:00-21:00", "phone": "+45 45422242", "ref:DK:cvr": "39381257", "ref:DK:cvr:pnummer": "1023401017", "takeaway": "yes", "website": "http://www.enoteca.nu/"}}, {"type": "node", "id": 536536592, "lat": 55.9638368, "lon": 12.7579055, "tags": {"amenity": "restaurant", "name": "Fortuna Strandkrog", "wheelchair": "yes"}}, {"type": "node", "id": 566120210, "lat": 55.9394652, "lon": 12.5289711, "tags": {"amenity": "restaurant", "cuisine": "regional", "email": "mail@trekosten.dk", "fvst:navnelbnr": "97259", "name": "Trekosten", "opening_hours": "Tu-Sa 12:00-22:00; Su 12:00-17:00", "phone": "+45 49 14 05 55", "website": "http://trekosten.dk/"}}, {"type": "node", "id": 711424029, "lat": 55.8508456, "lon": 12.5692657, "tags": {"amenity": "restaurant", "cuisine": "north_italian", "description": "Italian Gourmet", "fvst:navnelbnr": "91934", "name": "La Vela", "opening_hours": "Mo-Sa 17:30-22:00", "phone": "+45 45661843", "website": "http://la-vela.dk/"}}, {"type": "node", "id": 760721784, "lat": 55.8957804, "lon": 12.8042884, "tags": {"amenity": "restaurant", "name": "Pumphuset", "tourism": "museum"}}, {"type": "node", "id": 800167284, "lat": 55.8717598, "lon": 12.8193068, "tags": {"amenity": "restaurant", "name": "Strandpaviljongen"}}, {"type": "node", "id": 823106168, "lat": 55.8504893, "lon": 12.5702954, "tags": {"amenity": "restaurant", "cuisine": "regional", "fvst:name": "Nautilus Vedb\u00e6k Havn", "fvst:navnelbnr": "94181", "name": "Nautilus", "opening_hours": "12:00-16:00,17:30+", "phone": "+45 45661882", "website": "http://www.restaurant-nautilus.dk/"}}, {"type": "node", "id": 1252427310, "lat": 55.9989547, "lon": 12.7410806}, {"type": "node", "id": 1252427320, "lat": 55.998999, "lon": 12.7410134}, {"type": "node", "id": 1252427322, "lat": 55.999093, "lon": 12.740868}, {"type": "node", "id": 1252427330, "lat": 55.9990672, "lon": 12.7409911}, {"type": "node", "id": 1252427332, "lat": 55.9990403, "lon": 12.7407568}, {"type": "node", "id": 1252427354, "lat": 55.9989012, "lon": 12.7409679}, {"type": "node", "id": 1252427356, "lat": 55.9990214, "lon": 12.7410606}, {"type": "node", "id": 1252427365, "lat": 55.9990441, "lon": 12.7409424}, {"type": "node", "id": 1252490682, "lat": 55.9989183, "lon": 12.7410038}, {"type": "node", "id": 1377914657, "lat": 55.999348, "lon": 12.739951, "tags": {"amenity": "restaurant", "description": "Excellent Asian food", "name": "Nanny's", "takeaway": "yes"}}, {"type": "node", "id": 1429747748, "lat": 55.8375399, "lon": 13.0210082, "tags": {"addr:country": "SE", "addr:housenumber": "4", "addr:postcode": "26194", "addr:street": "Billebergav\u00e4gen", "amenity": "restaurant", "cuisine": "pizza", "name": "Annel\u00f6vs pizzeria", "website": "http://www.annelovspizzeria.se/"}}, {"type": "node", "id": 1529539834, "lat": 55.8066403, "lon": 12.5590609}, {"type": "node", "id": 1529539839, "lat": 55.8066341, "lon": 12.5593148}, {"type": "node", "id": 1529539854, "lat": 55.8066602, "lon": 12.559598}, {"type": "node", "id": 1529539856, "lat": 55.806667, "lon": 12.5593174}, {"type": "node", "id": 1529539859, "lat": 55.8067096, "lon": 12.5592812}, {"type": "node", "id": 1529539860, "lat": 55.806785, "lon": 12.559287}, {"type": "node", "id": 1529539862, "lat": 55.8067773, "lon": 12.5596069}, {"type": "node", "id": 1529539865, "lat": 55.8067148, "lon": 12.5590666}, {"type": "node", "id": 1561351338, "lat": 55.8195179, "lon": 12.5740668, "tags": {"alt_name": "The View", "amenity": "restaurant", "fvst:navnelbnr": "97308", "name": "The Restaurant at Skodsborg Kurhotel", "operator": "Skodsborg Kurhotel", "outdoor_seating": "yes", "payment:credit_cards": "yes", "phone": "+45 4558 5800", "reservation": "yes", "toilets": "yes", "website": "https://skodsborg.dk/en/gastronomy/dinner-drinks/the-brasserie-dinner-and-drinks/"}}, {"type": "node", "id": 1744519185, "lat": 55.9545928, "lon": 12.8331285, "tags": {"amenity": "restaurant", "diet:kosher": "no", "diet:vegan": "no", "diet:vegetarian": "yes", "name": "Miss Alice", "opening_hours": "Tu-Su 11:00-16:00", "payment:cash": "yes"}}, {"type": "node", "id": 1828091852, "lat": 55.9938705, "lon": 12.7427699}, {"type": "node", "id": 1828091853, "lat": 55.994097, "lon": 12.7427082}, {"type": "node", "id": 1828091854, "lat": 55.9941235, "lon": 12.7425517}, {"type": "node", "id": 1828091855, "lat": 55.9939695, "lon": 12.7428719}, {"type": "node", "id": 1828091857, "lat": 55.9942575, "lon": 12.7428665}, {"type": "node", "id": 1828091858, "lat": 55.9941885, "lon": 12.742947}, {"type": "node", "id": 1828091861, "lat": 55.993956, "lon": 12.7428289}, {"type": "node", "id": 1828091862, "lat": 55.993929, "lon": 12.742904}, {"type": "node", "id": 1828091863, "lat": 55.99392, "lon": 12.7428665}, {"type": "node", "id": 1828091864, "lat": 55.9938975, "lon": 12.7428799}, {"type": "node", "id": 1838587960, "lat": 55.9408245, "lon": 12.81862, "tags": {"amenity": "restaurant", "name": "Restaurang Milstolpen"}}, {"type": "node", "id": 2078811854, "lat": 55.9781663, "lon": 12.3999088, "tags": {"amenity": "restaurant", "capacity": "45", "cuisine": "burger", "fvst:navnelbnr": "803913", "name": "Restaurant Ciao", "opening_hours": "11:00-22:00", "phone": "+45 48482324", "website": "http://www.restaurantciao.dk/"}}, {"type": "node", "id": 2091030166, "lat": 55.8135931, "lon": 12.4949298}, {"type": "node", "id": 2091030167, "lat": 55.8134762, "lon": 12.4949527}, {"type": "node", "id": 2091030168, "lat": 55.8134877, "lon": 12.4953858}, {"type": "node", "id": 2091030169, "lat": 55.81352, "lon": 12.4953789}, {"type": "node", "id": 2091030170, "lat": 55.8136142, "lon": 12.4953446}, {"type": "node", "id": 2091030171, "lat": 55.8136108, "lon": 12.495296}, {"type": "node", "id": 2091030172, "lat": 55.8138678, "lon": 12.4951259}, {"type": "node", "id": 2091030173, "lat": 55.8139147, "lon": 12.4951166}, {"type": "node", "id": 2091030174, "lat": 55.8139064, "lon": 12.4949814}, {"type": "node", "id": 2091030175, "lat": 55.8135979, "lon": 12.4950067}, {"type": "node", "id": 2091032644, "lat": 55.8138746, "lon": 12.4952362}, {"type": "node", "id": 2091032645, "lat": 55.8138128, "lon": 12.4952483}, {"type": "node", "id": 2091032646, "lat": 55.8138045, "lon": 12.49525}, {"type": "node", "id": 2091032647, "lat": 55.8138475, "lon": 12.4948887}, {"type": "node", "id": 2091032648, "lat": 55.8138539, "lon": 12.4949917}, {"type": "node", "id": 2091032649, "lat": 55.8137721, "lon": 12.4951233}, {"type": "node", "id": 2091032650, "lat": 55.8136402, "lon": 12.4949294}, {"type": "node", "id": 2091077712, "lat": 55.9690025, "lon": 12.4080186, "tags": {"amenity": "restaurant", "contact:email": "asminderodkro@gmail.com", "cuisine": "danish", "fvst:navnelbnr": "533759", "name": "Asminder\u00f8d Kro", "opening_hours": "Tu-Th 17:30+", "phone": "+45 48480002", "website": "http://www.asminderoedkro.dk/"}}, {"type": "node", "id": 2144632632, "lat": 56.0119246, "lon": 12.715727}, {"type": "node", "id": 2144632651, "lat": 56.011754, "lon": 12.7151459}, {"type": "node", "id": 2144632654, "lat": 56.0118408, "lon": 12.7150649}, {"type": "node", "id": 2144632658, "lat": 56.0118766, "lon": 12.7157718}, {"type": "node", "id": 2144632663, "lat": 56.0119464, "lon": 12.7158015}, {"type": "node", "id": 2144632666, "lat": 56.0120789, "lon": 12.7155544}, {"type": "node", "id": 2144632668, "lat": 56.0121148, "lon": 12.715521}, {"type": "node", "id": 2144632680, "lat": 56.0117771, "lon": 12.7152252}, {"type": "node", "id": 2144632685, "lat": 56.012143, "lon": 12.7156179}, {"type": "node", "id": 2144632707, "lat": 56.0118994, "lon": 12.7149389}, {"type": "node", "id": 2144632712, "lat": 56.01173, "lon": 12.7152692}, {"type": "node", "id": 2144632715, "lat": 56.0118245, "lon": 12.7150088}, {"type": "node", "id": 2150190468, "lat": 55.9871677, "lon": 12.7578023, "tags": {"FIXME": "Position estimated", "amenity": "restaurant", "name": "\u00d6rby \u00c4ngar"}}, {"type": "node", "id": 2272864606, "lat": 55.8083158, "lon": 12.4408552}, {"type": "node", "id": 2272864608, "lat": 55.8083649, "lon": 12.4412946}, {"type": "node", "id": 2272864612, "lat": 55.8082337, "lon": 12.4411938}, {"type": "node", "id": 2333301618, "lat": 55.8849072, "lon": 12.5459453, "tags": {"amenity": "restaurant", "cuisine": "seafood and steaks", "email": "no22bistro@live.dk", "fvst:navnelbnr": "108012", "name": "No 22 Bistro", "opening_hours": "Mo-Fr 10:30+; Sa-Su 10:00+", "phone": "+45 45760608", "website": "http://www.no22bistro.dk/"}}, {"type": "node", "id": 2333301634, "lat": 55.8848691, "lon": 12.5457401, "tags": {"amenity": "restaurant", "cuisine": "regional;steak;pizza", "fvst:name": "IL GABBIANO Pizzeria og Steak House", "fvst:navnelbnr": "96122", "name": "Il Gabbiano", "phone": "+45 45791999", "website": "http://ilgabbiano.dk/"}}, {"type": "node", "id": 2343299311, "lat": 55.8287566, "lon": 12.5168396}, {"type": "node", "id": 2343299314, "lat": 55.8285927, "lon": 12.5169052}, {"type": "node", "id": 2343299326, "lat": 55.8286079, "lon": 12.5170259}, {"type": "node", "id": 2343299339, "lat": 55.8287719, "lon": 12.5169604}, {"type": "node", "id": 2444109517, "lat": 55.9680832, "lon": 12.7607948}, {"type": "node", "id": 2444109518, "lat": 55.9678381, "lon": 12.7607794}, {"type": "node", "id": 2444109519, "lat": 55.9678416, "lon": 12.7606015}, {"type": "node", "id": 2444109520, "lat": 55.9680867, "lon": 12.7606169}, {"type": "node", "id": 2456549772, "lat": 56.0131329, "lon": 12.7317706}, {"type": "node", "id": 2456549774, "lat": 56.0131214, "lon": 12.7317197}, {"type": "node", "id": 2456549776, "lat": 56.0130982, "lon": 12.7317365}, {"type": "node", "id": 2456549778, "lat": 56.0131016, "lon": 12.7317514}, {"type": "node", "id": 2456549780, "lat": 56.0130662, "lon": 12.7317771}, {"type": "node", "id": 2456549782, "lat": 56.0130774, "lon": 12.7318266}, {"type": "node", "id": 2456549784, "lat": 56.0131129, "lon": 12.7318008}, {"type": "node", "id": 2456549786, "lat": 56.0131098, "lon": 12.7317874}, {"type": "node", "id": 2497034503, "lat": 55.9881386, "lon": 12.80528}, {"type": "node", "id": 2497034505, "lat": 55.9881015, "lon": 12.8050303}, {"type": "node", "id": 2662937431, "lat": 55.8135607, "lon": 12.495014}, {"type": "node", "id": 2662937432, "lat": 55.8135679, "lon": 12.4951775}, {"type": "node", "id": 2662937433, "lat": 55.8136437, "lon": 12.4949851}, {"type": "node", "id": 2662937434, "lat": 55.8137621, "lon": 12.4949618}, {"type": "node", "id": 2689038094, "lat": 55.8949283, "lon": 12.8047226}, {"type": "node", "id": 2689038099, "lat": 55.8949381, "lon": 12.8048161}, {"type": "node", "id": 2689038131, "lat": 55.8949912, "lon": 12.8047017}, {"type": "node", "id": 2689038136, "lat": 55.895001, "lon": 12.8047952}, {"type": "node", "id": 2689038281, "lat": 55.8954857, "lon": 12.8042554}, {"type": "node", "id": 2689038282, "lat": 55.8954924, "lon": 12.8043139}, {"type": "node", "id": 2689038300, "lat": 55.8955137, "lon": 12.8042452}, {"type": "node", "id": 2689038311, "lat": 55.8955204, "lon": 12.8043036}, {"type": "node", "id": 2888996172, "lat": 55.8827261, "lon": 12.9939184}, {"type": "node", "id": 2888996175, "lat": 55.8827641, "lon": 12.9940312}, {"type": "node", "id": 2888996182, "lat": 55.8828201, "lon": 12.9938177}, {"type": "node", "id": 2888996186, "lat": 55.8828581, "lon": 12.9939304}, {"type": "node", "id": 2939473653, "lat": 55.9790105, "lon": 12.395673, "tags": {"amenity": "restaurant", "fvst:navnelbnr": "672129", "name": "Fredensborg Store Kro", "opening_hours": "Mo-Fr 7:00-10:00,12:00-15:00,18:00-22:00; Sa-Su 8:00-10:00,12:00-15:00,18:00-22:00", "phone": "+45 36448020", "website": "http://www.storekro.com/"}}, {"type": "node", "id": 2978243565, "lat": 55.808447, "lon": 12.440956}, {"type": "node", "id": 2992359845, "lat": 55.8867842, "lon": 12.9515138}, {"type": "node", "id": 2992359846, "lat": 55.88679, "lon": 12.951647}, {"type": "node", "id": 2992359884, "lat": 55.8869146, "lon": 12.9514955}, {"type": "node", "id": 2992359887, "lat": 55.8869204, "lon": 12.9516287}, {"type": "node", "id": 2993071421, "lat": 55.9535749, "lon": 12.5341921}, {"type": "node", "id": 2993071422, "lat": 55.9537664, "lon": 12.5343739}, {"type": "node", "id": 2993071423, "lat": 55.9536333, "lon": 12.5345306}, {"type": "node", "id": 2993071424, "lat": 55.9536669, "lon": 12.5344777}, {"type": "node", "id": 2993071425, "lat": 55.9536276, "lon": 12.5345252}, {"type": "node", "id": 2993071426, "lat": 55.9536144, "lon": 12.5345126}, {"type": "node", "id": 2993071427, "lat": 55.9536009, "lon": 12.5345585}, {"type": "node", "id": 2993071428, "lat": 55.9535091, "lon": 12.5344125}, {"type": "node", "id": 3112585542, "lat": 55.8404712, "lon": 12.4307081, "tags": {"amenity": "restaurant", "fvst:navnelbnr": "91859", "name": "Caf\u00e9 Alex", "opening_hours": "Mo-Th 10:30-22:00; Fr-Sa 10:30-23:00; Su 10:30-22:00", "website": "http://cafealex.dk/"}}, {"type": "node", "id": 3292167962, "lat": 55.8319708, "lon": 12.4115202, "tags": {"amenity": "restaurant", "cuisine": "danish", "fvst:fixme": "fvst:no_pos", "fvst:navnelbnr": "933832", "name": "Hestk\u00f8bgaard", "note": "Restaurant in Fures\u00f8 Golf Club", "opening_hours": "Apr-Oct 10:00-22:00", "outdoor_seating": "yes", "phone": "+45 45813214", "takeaway": "yes", "website": "http://www.fggolf.dk/restaurant/"}}, {"type": "node", "id": 3376141201, "lat": 55.8713944, "lon": 12.8331727, "tags": {"amenity": "restaurant", "level": "0", "name": "China Palace", "opening_hours": "Mo-Th 11:00-22:00, Fr,Sa 12:00-23:00, Su 13:00-22:00", "phone": "+4641826882", "wheelchair": "yes"}}, {"type": "node", "id": 3376141202, "lat": 55.8700784, "lon": 12.8307897, "tags": {"addr:city": "Landskrona", "amenity": "restaurant", "name": "Fellini", "outdoor_seating": "yes"}}, {"type": "node", "id": 3376141203, "lat": 55.8702809, "lon": 12.8309505, "tags": {"addr:city": "Landskrona", "amenity": "restaurant", "name": "Madde\u2019s", "opening_hours": "Mo-Th 10:00-20:00, Fr,Sa 10:00-22:00", "wheelchair": "yes"}}, {"type": "node", "id": 3376141204, "lat": 55.8698697, "lon": 12.8269042, "tags": {"amenity": "restaurant", "name": "Nils Holgerson", "opening_hours": "Mo-Sa 18:00-23:00", "wheelchair": "no"}}, {"type": "node", "id": 3376141205, "lat": 55.8692729, "lon": 12.8301342, "tags": {"amenity": "restaurant", "cuisine": "greek;mediterranean", "name": "Mythos Restaurang", "old_name:-2018": "O'Learys"}}, {"type": "node", "id": 3376141206, "lat": 55.8709354, "lon": 12.8329107, "tags": {"addr:city": "Landskrona", "addr:country": "SE", "addr:housenumber": "17", "addr:street": "J\u00e4rnv\u00e4gsgatan", "amenity": "restaurant", "check_date:opening_hours": "2021-01-09", "cuisine": "thai;asian", "diet:vegetarian": "yes", "level": "0", "name": "Rak Thai", "opening_hours": "Mo-Fr 11:00-20:00; Sa 11:30-20:00", "outdoor_seating": "no", "payment:cash": "yes", "payment:cryptocurrencies": "no", "phone": "+4641813110", "takeaway": "yes", "wheelchair": "no"}}, {"type": "node", "id": 3376141207, "lat": 55.8707741, "lon": 12.8303947, "tags": {"amenity": "restaurant", "name": "Speaker\u00b4s Corner"}}, {"type": "node", "id": 3376141208, "lat": 55.8706486, "lon": 12.8315901, "tags": {"amenity": "restaurant", "name": "Tycho Brahe", "opening_hours": "Mo-Th 11:30-24:00, Fr,Sa 11:30-01:00, Su 11:30-21:00", "wheelchair": "no"}}, {"type": "node", "id": 3404342001, "lat": 55.97144, "lon": 12.54351, "tags": {"amenity": "restaurant", "fvst:navnelbnr": "94272", "name": "Bolettes G\u00e6stebud", "opening_hours": "Tu-Sa 12:00-15:00,18:00-21:00", "phone": "+45 49194500", "website": "https://www.bolettes-gaestebud.dk/"}}, {"type": "node", "id": 3404342414, "lat": 55.97238, "lon": 12.54161, "tags": {"amenity": "restaurant", "cuisine": "regional", "fvst:navnelbnr": "90241", "name": "Gammel Humleb\u00e6k Kro", "opening_hours": "Tu-Su 12:00-16:00,17:30-21:00", "phone": "+45 49190265", "website": "http://www.gamlehumlebaekkro.dk/"}}, {"type": "node", "id": 3496492279, "lat": 55.9259927, "lon": 12.9553736, "tags": {"amenity": "restaurant", "cuisine": "pizza;kebab", "name": "T\u00e5garps Pizzeria Restaurang"}}, {"type": "node", "id": 3585222648, "lat": 55.8858977, "lon": 12.4399257}, {"type": "node", "id": 3585222650, "lat": 55.8859571, "lon": 12.4400385}, {"type": "node", "id": 3585222651, "lat": 55.8860495, "lon": 12.4399649}, {"type": "node", "id": 3585222652, "lat": 55.8860714, "lon": 12.44}, {"type": "node", "id": 3585222653, "lat": 55.8860947, "lon": 12.4395946}, {"type": "node", "id": 3585222654, "lat": 55.8861463, "lon": 12.4397201}, {"type": "node", "id": 3585222655, "lat": 55.8861539, "lon": 12.4397076}, {"type": "node", "id": 3585222656, "lat": 55.8861824, "lon": 12.4397882}, {"type": "node", "id": 3634958935, "lat": 56.0329454, "lon": 12.6090468, "tags": {"amenity": "restaurant", "cuisine": "italian", "fvst:name": "Ristorante Amici Mie\u00ed", "fvst:navnelbnr": "91814", "name": "Ristorante Amici Miei", "opening_hours": "12:00-22:00", "phone": "+45 49262671", "source": "survey"}}, {"type": "node", "id": 3699525869, "lat": 55.8065664, "lon": 12.5829867}, {"type": "node", "id": 3699525870, "lat": 55.8064952, "lon": 12.5826791}, {"type": "node", "id": 3699525871, "lat": 55.8063526, "lon": 12.5827836}, {"type": "node", "id": 3699525874, "lat": 55.8064048, "lon": 12.5831053}, {"type": "node", "id": 3760556835, "lat": 56.0918006, "lon": 12.4567784, "tags": {"amenity": "restaurant", "cuisine": "regional", "fvst:navnelbnr": "526458", "name": "Hansens Caf\u00e9", "opening_hours": "Mo-Fr 16:00-22:00; Sa 13:00-23:00; Su 13:00-17:00", "opening_hours:kitchen": "Mo-Fr 18:00-21:00; Sa 13:00-16:00,18:00-21:00; Su 13:00-16:00", "phone": "+45 49700479", "website": "https://www.hansenscafe.dk/"}}, {"type": "node", "id": 3767107376, "lat": 56.0909862, "lon": 12.4537565, "tags": {"amenity": "restaurant", "fvst:navnelbnr": "539425", "name": "Strandpavillonen Hornb\u00e6k", "opening_hours": "We 17:00+; Th-Fr 12:00+; Sa-Su 11:00+ \"from fall 2015\"", "phone": "+45 49200012", "website": "http://www.strandp.dk/"}}, {"type": "node", "id": 3770472034, "lat": 55.8856618, "lon": 12.548178, "tags": {"amenity": "restaurant", "cuisine": "steak", "fvst:navnelbnr": "566344", "name": "MASH Rungsted", "opening_hours": "12:00-15:00,17:30-22:00; Fr 12:00-15:00,17:30-23:00; Sa 09:30-14:00,17:00-23:00; Su 09:30-14:00,17:00-21:00; Dec 24-25 off; Jan 01 09:30-14:00", "phone": "+45 33139300", "website": "https://www.mashsteak.dk/restauranter/vis/mash-rungsted"}}, {"type": "node", "id": 3905691257, "lat": 55.8851726, "lon": 12.5471404, "tags": {"amenity": "restaurant", "cuisine": "japanese", "fvst:fixme": "wrong location in FVST", "fvst:name": "Sticks N Sushi", "fvst:navnelbnr": "501883", "name": "Sticks 'N' Sushi Rungsted Havn", "operator": "STICKS NSUSHI", "takeaway": "only"}}, {"type": "node", "id": 3919505527, "lat": 55.850597, "lon": 12.568076, "tags": {"amenity": "restaurant", "cuisine": "regional", "fvst:navnelbnr": "732945", "name": "First Hotel Marina Restaurant", "opening_hours": "12:00-23:00; Su off", "website": "https://www.firsthotels.com/Our-hotels/Hotels-in-Denmark/vedbaek/First-Hotel-Marina/Restaurant/Restaurant/"}}, {"type": "node", "id": 3920559084, "lat": 56.090341, "lon": 12.456602, "tags": {"amenity": "restaurant", "capacity": "35", "cuisine": "international", "fvst:navnelbnr": "93065", "name": "Restaurant Olivia", "opening_hours": "12:00-16:00,18:00-22:00; Su 12:00-16:00; Mo off; Jan 01 off; Dec 28-30 off", "outdoor_seating": "yes", "phone": "+45 49761177", "takeaway": "yes", "website": "http://www.oliva.dk/"}}, {"type": "node", "id": 3921255299, "lat": 56.0904701, "lon": 12.4590562, "tags": {"amenity": "restaurant", "cuisine": "sushi", "fvst:fixme": "wrong location in FVST", "fvst:navnelbnr": "131769", "name": "99 Sushi", "phone": "+45 48706688", "website": "http://9-9sushiwok.dk/"}}, {"type": "node", "id": 3921974217, "lat": 56.0636495, "lon": 12.5673756, "tags": {"amenity": "restaurant", "cuisine": "seasonal", "fvst:navnelbnr": "109950", "name": "Restaurant Sevel Hovedhuset", "opening_hours": "easter-Dec 31 12:00-22:00; Mo off; Jun-Sep 12:00-22:00", "phone": "+45 49707172", "website": "http://www.sevel.net/restaurant/"}}, {"type": "node", "id": 3922075402, "lat": 55.9192645, "lon": 12.4126452, "tags": {"amenity": "restaurant", "fvst:name": "JC Holding EST. 2019", "fvst:navnelbnr": "915740", "name": "Karlebo Kro", "opening_hours": "We-Fr 18:00+", "operator": "JC Holding Est 2019", "phone": "+45 48280404", "website": "http://www.karlebokro.dk/"}}, {"type": "node", "id": 3922310485, "lat": 56.0452304, "lon": 12.6038733, "tags": {"amenity": "restaurant", "fvst:navnelbnr": "108584", "name": "Marienlyst Brasserie 1861", "opening_hours": "12:00-15:00,18:00-21:45; Mo 12:00-15:00; Fr-Sa 12:00-15:00,17:30-21:45", "phone": "+45 49214000", "website": "https://www.marienlyst.dk/en/restaurants-bars/brasserie-1861"}}, {"type": "node", "id": 3922310494, "lat": 56.037405, "lon": 12.610322, "tags": {"amenity": "restaurant", "cuisine": "italian", "fvst:navnelbnr": "109397", "name": "La Dolce Vita", "opening_hours": "17:00-23:00; Su off", "phone": "+45 49211880", "website": "http://la-dolcevita.dk/"}}, {"type": "node", "id": 3923669978, "lat": 56.0450771, "lon": 12.6040198, "tags": {"amenity": "restaurant", "fvst:navnelbnr": "90227", "name": "Marienlyst Restaurant", "phone": "+45 49214000", "website": "https://www.marienlyst.dk/en/restaurants-bars/restaurant-marienlyst"}}, {"type": "node", "id": 3923669990, "lat": 56.0339384, "lon": 12.6110247, "tags": {"amenity": "restaurant", "cuisine": "steak;steak_house", "fvst:navnelbnr": "524789", "name": "Rib House Helsing\u00f8r", "opening_hours": "11:00-22:00; Fr-Sa 11:00-23:00", "outdoor_seating": "yes", "phone": "+45 49200300", "toilets:wheelchair": "yes", "website": "https://ribhouse.dk/start/?sted=Helsing%C3%B8r"}}, {"type": "node", "id": 3924012721, "lat": 56.0366326, "lon": 12.6103663, "tags": {"amenity": "restaurant", "cuisine": "sm\u00f8rrebr\u00f8d", "fvst:navnelbnr": "95185", "name": "G\u00e6stgiverg\u00e5rden", "opening_hours": "10:00-23:00; Su off; Fr-Sa 10:00-01:00", "phone": "+45 49211978", "website": "http://www.gaestgivergaarden.dk/"}}, {"type": "node", "id": 3924184899, "lat": 56.019705, "lon": 12.571391, "tags": {"amenity": "restaurant", "cuisine": "asian", "fvst:name": "Chen Xi aps", "fvst:navnelbnr": "647351", "name": "Hamlet Asia Restaurant", "opening_hours": "Mo-Fr 17:00-21:30; Fr,Sa,Su,PH 17:00-22:00", "phone": "+45 58528888", "website": "http://hamletasia.dk/"}}, {"type": "node", "id": 3924184945, "lat": 56.004351, "lon": 12.554551, "tags": {"amenity": "restaurant", "cuisine": "1920's danish", "fvst:name": "Erindringsk\u00f8kkenet Flynderupg\u00e5rd", "fvst:navnelbnr": "94769", "name": "Folkestuen Flynderupg\u00e5rd", "phone": "+45 49281907", "website": "http://www.helsingormuseer.dk/"}}, {"type": "node", "id": 3926080273, "lat": 55.9754632, "lon": 12.4897666, "tags": {"amenity": "restaurant", "fvst:navnelbnr": "931853", "name": "Lakeside Restaurant", "opening_hours": "Mo-Th 11:00-22:00; Fr 11:00-20:30; Sa,Su,PH 10:00-20:30", "operator": "Simons Golf", "website": "https://restaurantlakeside.dk/"}}, {"type": "node", "id": 3926199957, "lat": 55.978281, "lon": 12.40068, "tags": {"amenity": "restaurant", "cuisine": "pizza", "fvst:navnelbnr": "527848", "name": "Cafe la Conte", "phone": "+45 48476068", "website": "http://www.laconte.nu/"}}, {"type": "node", "id": 3927008765, "lat": 55.9387292, "lon": 12.5280114, "tags": {"amenity": "restaurant", "capacity": "250", "cuisine": "regional", "fvst:navnelbnr": "125507", "name": "Lagunen", "opening_hours": "12:00-22:00; Mo off; Dec 20-Jan 13 off", "phone": "+45 49146611", "smoking": "outside", "takeaway": "yes", "website": "http://restaurantlagunen.com/"}}, {"type": "node", "id": 3927008780, "lat": 55.922692, "lon": 12.472957, "tags": {"amenity": "restaurant", "cuisine": "regional", "name": "Kombuis", "outdoor_seating": "yes", "phone": "+45 49148889", "seasonal": "summer;spring;fall", "start_date": "2020-03-14", "website": "https://www.nivaagolf.dk/restaurant/"}}, {"type": "node", "id": 3927008781, "lat": 55.9531683, "lon": 12.5356875, "tags": {"access": "private", "amenity": "restaurant", "fvst:name": "Kabyssen Sletten", "fvst:navnelbnr": "766416", "name": "Kabyssen", "operator": "Sletten B\u00e5deklub", "outdoor_seating": "yes"}}, {"type": "node", "id": 3927214030, "lat": 55.9642383, "lon": 12.531874, "tags": {"alt_name": "NI NI Running Sushi", "amenity": "restaurant", "cuisine": "sushi", "fvst:fixme": "fvst position missing, fixed from overpassturbo/osak", "fvst:navnelbnr": "738913", "name": "9 Ni Running Sushi", "opening_hours": "Mo-Th 14:00-21:30; Fr-Su 12:00-21:30; Dec 24-25 off", "phone": "+45 49266688", "website": "https://www.ninisushi.dk/"}}, {"type": "node", "id": 3927335202, "lat": 55.9780236, "lon": 12.4017269, "tags": {"amenity": "restaurant", "cuisine": "indian", "fvst:name": "Mahal", "fvst:navnelbnr": "661477", "name": "Indian Mahal Hut", "opening_hours": "15:00-21:00; Fr-Sa 15:00-22:00"}}, {"type": "node", "id": 3929777657, "lat": 55.9021274, "lon": 12.4758215, "tags": {"amenity": "restaurant", "fvst:navnelbnr": "97930", "name": "Restaurant Shanghai", "opening_hours": "14:00-22:00", "phone": "+45 785888", "website": "http://restaurant-shanghai.dk/"}}, {"type": "node", "id": 3929777659, "lat": 55.903554, "lon": 12.518106, "tags": {"amenity": "restaurant", "fvst:name": "Cafe Backtee", "fvst:navnelbnr": "741897", "name": "Strand\u00b4s Kokkedal Golfklubs restaurant", "opening_hours": "Jan-Feb off", "phone": "+45 25482772", "website": "http://www.strandsmad.dk/"}}, {"type": "node", "id": 3930628139, "lat": 55.8961995, "lon": 12.4924845, "tags": {"access": "customers", "amenity": "restaurant", "fvst:name": "Kl\u00e6defabrikken", "fvst:navnelbnr": "769251", "name": "Restaurant Stella", "website": "http://klaedefabrik.dk/restaurant-stella/restaurant-stella-tilbyder.aspx"}}, {"type": "node", "id": 3931427653, "lat": 55.883332, "lon": 12.5281971, "tags": {"amenity": "restaurant", "cuisine": "sushi", "fvst:navnelbnr": "700215", "name": "Letz Sushi Rungsted", "opening_hours": "16:00-21:00", "phone": "+45 32221918", "website": "https://letzsushi.dk/restauranter/rungsted/"}}, {"type": "node", "id": 3932339703, "lat": 55.8786975, "lon": 12.5011362, "tags": {"amenity": "restaurant", "cuisine": "thai", "fvst:name": "Sawasdee Charoen", "fvst:navnelbnr": "713089", "name": "Sawasdee", "opening_hours": "16:00-21:00; Mo off", "phone": "+45 52174588", "website": "http://www.thaitakeaway2970.dk/"}}, {"type": "node", "id": 3933193808, "lat": 55.881282, "lon": 12.531254, "tags": {"amenity": "restaurant", "cuisine": "regional", "fvst:name": "MADHUSET SUBSTANS", "fvst:navnelbnr": "795826", "name": "Restaurant Rungsted Golf Klub", "opening_hours": "11:30-16:30,17:30-21:30; Jan-Feb off", "operator": "Substans", "phone": "+45 45864149", "website": "http://www.rungstedgolfklub.dk/restaurant/om-restauranten/"}}, {"type": "node", "id": 3933193809, "lat": 55.885738, "lon": 12.541354, "tags": {"amenity": "restaurant", "fvst:navnelbnr": "567960", "name": "Rungsted kro", "opening_hours": "11:30-21:30", "phone": "+45 45866970", "website": "http://rungstedkro.dk/"}}, {"type": "node", "id": 3935763598, "lat": 55.816404, "lon": 12.485861, "tags": {"amenity": "restaurant", "cuisine": "italian", "fvst:name": "Pomodoro Rosso", "fvst:navnelbnr": "921849", "name": "Pomodoro Rosso II", "opening_hours": "11:00-21:00", "phone": "+45 45414443"}}, {"type": "node", "id": 3935763613, "lat": 55.8392779, "lon": 12.4307696, "tags": {"amenity": "restaurant", "cuisine": "chinese", "fvst:navnelbnr": "97625", "name": "Restaurant Ming Zh\u00fa", "phone": "+45 45818558"}}, {"type": "node", "id": 3936003499, "lat": 55.830139, "lon": 12.458719, "tags": {"amenity": "restaurant", "fvst:name": "Comwell Holte Restaurant", "fvst:navnelbnr": "91049", "name": "Leonardo", "operator": "Comwell Holte", "website": "https://www.comwellholte.dk/comwell_holte/restaurant-and-partiesrestaurant-leonardo/"}}, {"type": "node", "id": 3940802749, "lat": 55.840442, "lon": 12.4304249, "tags": {"amenity": "restaurant", "cuisine": "chinese", "fvst:navnelbnr": "98086", "name": "Restaurant Sen Xing og Birker\u00f8d Kro", "opening_hours": "12:00-22:00", "phone": "+45 45 82 28 29", "website": "http://www.kinesisk-birkerodkro.dk"}}, {"type": "node", "id": 3946808523, "lat": 55.820051, "lon": 12.536815, "tags": {"amenity": "restaurant", "cuisine": "sushi", "fvst:name": "Ni-Hao ApS", "fvst:navnelbnr": "761457", "name": "Ni Hao Sushi", "opening_hours": "Mo-Su 13:00-22:00"}}, {"type": "node", "id": 3946846865, "lat": 55.8117194, "lon": 12.4739842, "tags": {"amenity": "restaurant", "cuisine": "chinese", "fvst:navnelbnr": "513392", "name": "Restaurant Xin Fu", "opening_hours": "16:00-22:00", "phone": "+45 45484810", "website": "http://www.xinfu.dk/"}}, {"type": "node", "id": 3948154460, "lat": 55.8118592, "lon": 12.474333, "tags": {"amenity": "restaurant", "cuisine": "regional", "fvst:navnelbnr": "737331", "name": "Dagens M\u00e5ltid", "opening_hours": "16:00-20:00; Sa-Su off", "takeaway": "only", "website": "http://dagensmaaltid.dk/"}}, {"type": "node", "id": 3967275441, "lat": 56.0339158, "lon": 12.6088843, "tags": {"amenity": "restaurant", "cuisine": "thai", "fvst:fixme": "wrong location in FVST", "fvst:navnelbnr": "130915", "name": "Thai Kitchen", "opening_hours": "14:30-21:00", "takeaway": "only", "website": "http://www.thai-kitchen.dk/"}}, {"type": "node", "id": 3971433042, "lat": 56.0336523, "lon": 12.6135604, "tags": {"amenity": "restaurant", "cuisine": "chinese", "fvst:fixme": "wrong location in FVST", "fvst:navnelbnr": "121212", "name": "HaiYi", "opening_hours": "17:00-22:00", "phone": "+45 49201126", "takeaway": "yes", "website": "http://haiyi.dk/"}}, {"type": "node", "id": 4016692480, "lat": 56.0917157, "lon": 12.4537556, "tags": {"amenity": "restaurant", "check_date": "2020-11-20", "cuisine": "regional", "name": "Kurbadet Restaurant", "phone": "+45 70606021", "website": "https://www.kurbadet.dk/"}}, {"type": "node", "id": 4047400389, "lat": 55.8860567, "lon": 12.9450019, "tags": {"amenity": "restaurant", "cuisine": "pizza", "name": "Hawai Restaurang & Pizzeria", "note": "Sic!"}}, {"type": "node", "id": 4261836180, "lat": 56.033396, "lon": 12.614632, "tags": {"amenity": "restaurant", "fvst:navnelbnr": "653831", "name": "Sundkroen", "operator": "Madam Sprunck", "phone": "+45 49264849", "website": "http://www.madamsprunck.dk/#!sundkroen/e4wee"}}, {"type": "node", "id": 4364472390, "lat": 55.8698464, "lon": 12.8288171, "tags": {"addr:city": "Landskrona", "addr:country": "SE", "addr:housenumber": "27", "addr:street": "Storgatan", "amenity": "restaurant", "capacity": "80", "cuisine": "italian;pizza", "diet:vegan": "no", "diet:vegetarian": "yes", "level": "0", "name": "Mamma Teresa Restaurang", "opening_hours": "Mo-Th 11:00-21:00; Fr 11:00-22:00; Sa 12:00-22:00; Su 12:00-21:00", "phone": "+46-41819430", "smoking": "outside", "takeaway": "yes", "toilets": "yes", "toilets:access": "customers", "website": "Www.mammateresa.se", "wheelchair": "yes"}}, {"type": "node", "id": 4367763872, "lat": 55.8606712, "lon": 12.8536109, "tags": {"addr:city": "Landskrona", "addr:postcode": "26135", "addr:street": "Stuverigatan", "amenity": "restaurant", "cuisine": "fish", "name": "Idas by the sea", "website": "http://idas.se/"}}, {"type": "node", "id": 4401117967, "lat": 56.0054162, "lon": 12.5788725, "tags": {"amenity": "restaurant", "cuisine": "steak_house", "fvst:navnelbnr": "805779", "name": "Vores Skotterup", "old_name": "Det Nye Skotterup", "opening_hours": "17:00-23:00; Mo-Tu off", "opening_hours:kitchen": "17:00-21:30; Mo-Tu off", "phone": "+45 78762543", "website": "https://www.detnyeskotterup.dk/"}}, {"type": "node", "id": 4402349993, "lat": 55.8868919, "lon": 12.4978875, "tags": {"amenity": "restaurant", "branch": "H\u00f8rsholm", "cuisine": "sushi", "email": "horsholm@sushiamor.dk", "fvst:navnelbnr": "923810", "name": "Sushi Amor", "opening_hours": "Mo-Sa 12:00-21:00; Su 14:00-21:00", "phone": "+45 45864584", "smoking": "no", "takeaway": "yes", "website": "https://horsholm.sushiamor.dk/"}}, {"type": "node", "id": 4554148432, "lat": 55.9763487, "lon": 12.4040496, "tags": {"amenity": "restaurant", "cuisine": "pizza", "fvst:name": "Castello Pizza & Restaurant", "fvst:navnelbnr": "548873", "name": "Castello"}}, {"type": "node", "id": 4557526468, "lat": 55.8503695, "lon": 12.5701912, "tags": {"amenity": "restaurant", "fvst:fixme": "fvst position missing, fixed from Nominatim", "fvst:navnelbnr": "567944", "name": "Nautilus2go", "takeaway": "only"}}, {"type": "node", "id": 4564119170, "lat": 56.050507, "lon": 12.578359, "tags": {"amenity": "restaurant", "fvst:fixme": "fvst position missing, fixed from overpassturbo/osak", "fvst:name": "Restaurant Helsing\u00f8r Golfklub", "fvst:navnelbnr": "722146", "name": "Sweet Spot Restaurant", "phone": "+45 49212950", "website": "http://sweet-spot.one/"}}, {"type": "node", "id": 4740483940, "lat": 55.8063881, "lon": 12.5830333}, {"type": "node", "id": 4740483941, "lat": 55.8064072, "lon": 12.5830193}, {"type": "node", "id": 4811082643, "lat": 55.9396175, "lon": 12.7744425, "tags": {"amenity": "restaurant", "name": "\u00c5labodarnas hamnkrog", "website": "https://www.orenasslott.com/restaurang/alabodarnas-hamnkrog"}}, {"type": "node", "id": 4811082644, "lat": 55.9403629, "lon": 12.7810983, "tags": {"amenity": "restaurant", "name": "\u00d6ren\u00e4s Slottsrestaurang", "opening_hours": "Mo-Fr 12:00-14:00, 18:00-21:00; Sa 12:00-14:00, 18:00-21:00; Su 12:30-14:30", "phone": "+46418451100", "website": "http://www.orenasslott.com/restaurang/"}}, {"type": "node", "id": 4811082645, "lat": 55.940749, "lon": 12.806642, "tags": {"addr:country": "SE", "addr:housenumber": "37", "addr:street": "\u00c5labodsv\u00e4gen", "amenity": "restaurant", "name": "Alexanders Restaurang och Pizzeria", "phone": "+4641870135", "website": "http://glumslovspizzeria.com/"}}, {"type": "node", "id": 4812264287, "lat": 55.9045051, "lon": 12.8088404, "tags": {"addr:country": "SE", "addr:housenumber": "31", "addr:street": "Lill-Olas v\u00e4g", "amenity": "restaurant", "name": "Erikstorps Kungsg\u00e5rd", "phone": "+4641826075", "website": "http://www.erikstorpskungsgard.se/mat"}}, {"type": "node", "id": 4853232557, "lat": 55.8415744, "lon": 12.4281234, "tags": {"amenity": "restaurant", "fvst:navnelbnr": "700213", "name": "Restaurant Mantzius", "opening_hours": "11:00-23:00; Su 11:00-16:00; Mo off", "phone": "+45 29862281", "takeaway": "yes", "website": "https://www.restaurant-mantzius.dk/"}}, {"type": "node", "id": 5227705080, "lat": 55.8705021, "lon": 12.8336921, "tags": {"addr:city": "Landskrona", "addr:country": "SE", "addr:housenumber": "31", "addr:street": "\u00d6stergatan", "amenity": "restaurant", "cuisine": "thai;asian", "diet:vegetarian": "yes", "level": "0", "name": "Restaurang Basilika", "opening_hours": "Tu-Th 11:00-22:00; Fr 11:00-23:00; Sa 12:00-23:00; Su 12:00-22:00", "phone": "+4641858440", "takeaway": "yes", "website": "http://www.restaurangbasilika.se/"}}, {"type": "node", "id": 5238047122, "lat": 55.8684239, "lon": 12.8294978, "tags": {"addr:country": "SE", "addr:housenumber": "6", "addr:street": "Drottninggatan", "amenity": "restaurant", "name": "Shamiat", "opening_hours": "Mo-Fr 10:00-20:00; Sa 11:00-22:00; Su 11:00-19:00", "wheelchair": "yes"}}, {"type": "node", "id": 5238047697, "lat": 55.8694085, "lon": 12.8322614, "tags": {"addr:country": "SE", "addr:housenumber": "7", "addr:street": "J\u00e4rnv\u00e4gsgatan", "amenity": "restaurant", "diet:vegetarian": "yes", "name": "Topp Falafel", "opening_hours": "Mo-Fr 10:00-22:00; Sa 11:00-22:00; Su 12:00-22:00", "outdoor_seating": "no", "payment:cash": "yes", "payment:cryptocurrencies": "no", "phone": "+4641810078", "takeaway": "yes", "wheelchair": "no"}}, {"type": "node", "id": 5247240797, "lat": 55.8723489, "lon": 12.8350098, "tags": {"addr:city": "Landskrona", "addr:country": "SE", "addr:housenumber": "6", "addr:street": "Skolall\u00e9n", "amenity": "restaurant", "name": "Pizzeria Viking", "opening_hours": "Mo-Th 11:00-21:00; Fr 11:00-22:00; Sa 13:00-22:00; Su 13:00-21:00", "phone": "+4641826111", "website": "http://pizzaviking.se/"}}, {"type": "node", "id": 5247284294, "lat": 55.8688837, "lon": 12.828545, "tags": {"addr:city": "Landskrona", "addr:housenumber": "28", "addr:postcode": "261 31", "addr:street": "Storgatan", "amenity": "restaurant", "cuisine": "thai", "name": "ThaiK\u00f6ket", "opening_hours": "Mo-Fr 11:00-20:00; Sa-Su 15:00-20:00", "phone": "+46418770499", "website": "http://thaimatisydskane.se/"}}, {"type": "node", "id": 5299693671, "lat": 56.0452714, "lon": 12.6037034, "tags": {"amenity": "restaurant", "fvst:name": "STRAND- og BADEHOTEL MARIENLYST", "fvst:navnelbnr": "717707", "name": "Salon Marienlyst", "website": "https://www.marienlyst.dk/"}}, {"type": "node", "id": 5631212096, "lat": 56.0922168, "lon": 12.4537848, "tags": {"amenity": "restaurant", "fvst:navnelbnr": "737741", "name": "Backyard Restaurants"}}, {"type": "node", "id": 5631301776, "lat": 56.0501773, "lon": 12.588144, "tags": {"access": "residents", "amenity": "restaurant", "fvst:navnelbnr": "741287", "name": "Birkebo - Birkevangen", "website": "https://www.birkebo-dsi.dk/restaurant.html"}}, {"type": "node", "id": 5812310600, "lat": 56.0015757, "lon": 12.7323918}, {"type": "node", "id": 5812310601, "lat": 56.0016163, "lon": 12.7324838}, {"type": "node", "id": 5812310602, "lat": 56.0015384, "lon": 12.7325953}, {"type": "node", "id": 5812310603, "lat": 56.0015124, "lon": 12.7325386}, {"type": "node", "id": 5812310604, "lat": 56.0015527, "lon": 12.732424}, {"type": "node", "id": 5814410570, "lat": 55.9919983, "lon": 12.7424187}, {"type": "node", "id": 5814410571, "lat": 55.9919734, "lon": 12.7424499}, {"type": "node", "id": 5814410572, "lat": 55.9920587, "lon": 12.7426569}, {"type": "node", "id": 5814410573, "lat": 55.992066, "lon": 12.7425916}, {"type": "node", "id": 5814410574, "lat": 55.9920439, "lon": 12.7426193}, {"type": "node", "id": 5814410575, "lat": 55.9920164, "lon": 12.7427099}, {"type": "node", "id": 5814410576, "lat": 55.9920411, "lon": 12.7426226}, {"type": "node", "id": 5814410577, "lat": 55.9920016, "lon": 12.7426721}, {"type": "node", "id": 5833582896, "lat": 55.8565157, "lon": 12.9104838, "tags": {"amenity": "restaurant", "name": "H\u00e4ljarps Pizzeria", "outdoor_seating": "yes", "takeaway": "yes"}}, {"type": "node", "id": 5849462418, "lat": 55.8714207, "lon": 12.8371218, "tags": {"addr:city": "Landskrona", "addr:country": "SE", "addr:housenumber": "8", "addr:street": "\u00d6dmanssonsgatan", "amenity": "restaurant", "diet:vegan": "yes", "diet:vegetarian": "yes", "name": "Neptune Sushi", "opening_hours": "Mo-Fr 11:00-21:00; Sa,Su 16:00-21:00", "phone": "+4641814165", "website": "http://www.neptune-sushi.se", "wheelchair": "no"}}, {"type": "node", "id": 5875650174, "lat": 56.0759021, "lon": 12.5435902, "tags": {"access": "residents", "amenity": "restaurant", "fvst:navnelbnr": "982335", "name": "Restaurant Lille Odinsh\u00f8j", "ref:DK:cvr": "39082799", "website": "http://www.lilleodinshoej.dk/page5.html"}}, {"type": "node", "id": 5904214530, "lat": 56.0987719, "lon": 12.3864472, "tags": {"amenity": "restaurant", "cuisine": "italian", "fvst:fixme": "fvst position missing, fixed from overpassturbo/osak", "fvst:navnelbnr": "741620", "name": "Il Vero Siciliano", "website": "http://www.ilvero.dk/"}}, {"type": "node", "id": 5908189806, "lat": 56.0500866, "lon": 12.5878832, "tags": {"access": "residents", "amenity": "restaurant", "fvst:navnelbnr": "741289", "name": "Birkebo - Birkedalen", "website": "https://www.birkebo-dsi.dk/restaurant.html"}}, {"type": "node", "id": 5909947944, "lat": 56.0502978, "lon": 12.5883231, "tags": {"access": "residents", "amenity": "restaurant", "fvst:navnelbnr": "741286", "name": "Birkebo - Birkelyet", "website": "https://www.birkebo-dsi.dk/restaurant.html"}}, {"type": "node", "id": 5916730261, "lat": 55.8687846, "lon": 12.8195625, "tags": {"amenity": "restaurant", "name": "Seglarpaviljongen"}}, {"type": "node", "id": 5931765305, "lat": 55.8702362, "lon": 12.8309065, "tags": {"amenity": "restaurant", "name": "Grands Restaurang & Caf\u00e9", "opening_hours": "Mo-Th 10:00-21:00; Fr-Sa 10:00-04:00, Su 11:00-21:00"}}, {"type": "node", "id": 6032966917, "lat": 55.8781734, "lon": 12.8342157, "tags": {"addr:country": "SE", "addr:housenumber": "168 B", "addr:street": "Eriksgatan", "amenity": "restaurant", "cuisine": "asian;indian", "description": "Indisk bar och take away", "diet:vegetarian": "yes", "email": "info@restaurangmaharani.se", "name": "Maharani", "opening_hours": "Mo-Th 11:00-22:00; Fr 11:00-23:00; Sa 12:00-23:00; Su 13:00-21:00", "phone": "+4641820719", "takeaway": "yes", "website": "http://www.restaurangmaharani.se"}}, {"type": "node", "id": 6188507650, "lat": 55.8724555, "lon": 12.8544143, "tags": {"amenity": "restaurant", "cuisine": "pizza", "name": "Restaurang Pizzeria Axets"}}, {"type": "node", "id": 6316211263, "lat": 55.9535975, "lon": 12.5347097}, {"type": "node", "id": 6316240824, "lat": 55.9536508, "lon": 12.5347607}, {"type": "node", "id": 6316242470, "lat": 55.9536141, "lon": 12.534571}, {"type": "node", "id": 6316256082, "lat": 55.9536531, "lon": 12.5344647}, {"type": "node", "id": 6551607381, "lat": 55.8285938, "lon": 12.5169142}, {"type": "node", "id": 6680612956, "lat": 56.0415606, "lon": 12.6119741, "tags": {"amenity": "restaurant", "cuisine": "steak_house; seafood", "fvst:navnelbnr": "795249", "name": "Restaurant Kaj", "opening_hours": "12:00-16:00, 18:00-21:30", "phone": "+45 49202045", "website": "https://rkaj.dk/"}}, {"type": "node", "id": 6700157356, "lat": 56.0883427, "lon": 12.4615659, "tags": {"amenity": "restaurant", "fvst:navnelbnr": "743439", "name": "Spisehus Ewaldsgaarden", "website": "http://ewaldsgaarden.dk/"}}, {"type": "node", "id": 6700157360, "lat": 56.0362652, "lon": 12.6099335, "tags": {"access:covid19": "no", "amenity": "restaurant", "cuisine": "thai", "fvst:navnelbnr": "793331", "name": "Krua Siam Torvegade", "opening_hours": "13:00-21:00", "phone": "+45 61633066", "website": "https://www.kruasiam.dk/"}}, {"type": "node", "id": 6782735815, "lat": 55.8717764, "lon": 12.832641, "tags": {"addr:street": "Borgm\u00e4staregatan", "amenity": "restaurant", "name": "Restaurang Napoli", "opening_hours": "Mo-Sa 12:00-22:00; Su 12:00-21:00", "phone": "+4641825895"}}, {"type": "node", "id": 7197782334, "lat": 56.0377218, "lon": 12.6142431, "tags": {"amenity": "restaurant", "fvst:navnelbnr": "928253", "name": "Spisehuset p\u00e5 Kulturv\u00e6rftet"}}, {"type": "node", "id": 7289816824, "lat": 55.8417828, "lon": 12.4322785, "tags": {"amenity": "restaurant", "cuisine": "regional", "fvst:navnelbnr": "927580", "name": "Gastro 27", "opening_hours": "17:00 - 22:00; Su off", "phone": "+45 60565419", "website": "https://gastro27.dk/"}}, {"type": "node", "id": 7295639791, "lat": 55.8826709, "lon": 12.5229372, "tags": {"amenity": "restaurant", "cuisine": "pakistani", "fvst:name": "Village - pakistansk & indisk restaurant", "fvst:navnelbnr": "920516", "name": "Punjab Village"}}, {"type": "node", "id": 7476929768, "lat": 55.8788091, "lon": 12.8342333, "tags": {"amenity": "restaurant", "cuisine": "pizza", "name": "Landskrona pizzeria"}}, {"type": "node", "id": 7501775368, "lat": 55.8686504, "lon": 12.824859, "tags": {"amenity": "restaurant", "name": "Restaurang Sofia by the sea"}}, {"type": "node", "id": 7546177223, "lat": 55.8883379, "lon": 12.8247625, "tags": {"amenity": "restaurant", "name": "Ibbe's Pizzeria & Pub"}}, {"type": "node", "id": 7684847304, "lat": 56.034277, "lon": 12.61301, "tags": {"amenity": "restaurant", "cuisine": "asian", "fvst:fixme": "fvst position missing, fixed from overpassturbo/osak", "fvst:navnelbnr": "944541", "name": "Asian Bistro", "opening_hours": "Mo 12:00-18:00;Tu-Fr 12:00-20:00;Sa 11:00-20:00; Su off", "takeaway": "yes"}}, {"type": "node", "id": 7686685487, "lat": 55.819855, "lon": 12.537126, "tags": {"amenity": "restaurant", "cuisine": "thai", "fvst:fixme": "fvst position missing, fixed from overpassturbo/osak", "fvst:navnelbnr": "944478", "name": "La Tre Restaurant & Bar", "phone": "+45 53506090", "website": "https://www.latre.dk/"}}, {"type": "node", "id": 7711589696, "lat": 56.0917364, "lon": 12.4537915, "tags": {"amenity": "restaurant", "fvst:navnelbnr": "946987", "name": "Restaurant I"}}, {"type": "node", "id": 7711964510, "lat": 55.884885, "lon": 12.453853, "tags": {"amenity": "restaurant", "cuisine": "regional", "fvst:fixme": "fvst position missing, fixed from overpassturbo/osak", "fvst:navnelbnr": "944768", "name": "Restaurant Lerb\u00e6kgaard", "phone": "+45 45761500", "website": "https://www.lerbaekgaard.dk/"}}, {"type": "node", "id": 7832044261, "lat": 55.8195668, "lon": 12.5742795, "tags": {"amenity": "restaurant", "fvst:navnelbnr": "94135", "name": "Skodsborg Kurhotel & Spa Brasserie Carl", "opening_hours": "07:00-21:30", "website": "https://skodsborg.dk/barogrestaurant-2/carl/madfilosofi/"}}, {"type": "node", "id": 7856959482, "lat": 55.9924713, "lon": 12.560781, "tags": {"amenity": "restaurant", "fvst:navnelbnr": "98292", "name": "Divino Pizza", "website": "https://www.cafedivino.dk/italiensk-pizza.aspx"}}, {"type": "node", "id": 7935683652, "lat": 56.035103, "lon": 12.610544, "tags": {"amenity": "restaurant", "cuisine": "sm\u00f8rrebr\u00f8d", "fvst:fixme": "fvst position missing, fixed from overpassturbo/osak", "fvst:navnelbnr": "950756", "name": "Sm\u00f8rbaren", "phone": "+45 91768177", "takeaway": "only"}}, {"type": "node", "id": 8171564832, "lat": 55.8964771, "lon": 12.5171532, "tags": {"amenity": "restaurant", "fvst:navnelbnr": "671302", "name": "Restaurant Halvleg", "ref:DK:cvr": "37940321", "ref:DK:cvr:pnummer": "1021673273"}}, {"type": "node", "id": 8201997810, "lat": 56.034053, "lon": 12.613022, "tags": {"amenity": "restaurant", "fvst:fixme": "fvst position missing, fixed from overpassturbo/osak", "fvst:navnelbnr": "964598", "name": "Restaurant Den Glade Tallerken", "phone": "+45 71997000", "ref:DK:cvr": "41868856", "ref:DK:cvr:pnummer": "1026497066"}}, {"type": "node", "id": 8202137144, "lat": 56.03516, "lon": 12.611217, "tags": {"amenity": "restaurant", "fvst:fixme": "fvst position missing, fixed from overpassturbo/osak", "fvst:navnelbnr": "961967", "name": "Vogelhaus", "opening_hours": "17:00-22:00; Sa-Su 12:00-22:00", "phone": "+45 53842450", "ref:DK:cvr": "41822562", "website": "https://vogelhaus.dk/"}}, {"type": "node", "id": 8209838260, "lat": 55.9787032, "lon": 12.3990786, "tags": {"amenity": "restaurant", "cuisine": "burger;sm\u00f8rrebr\u00f8d;danish", "fvst:fixme": "fvst position missing, fixed from overpassturbo/osak", "fvst:navnelbnr": "953473", "name": "Roots restaurant", "opening_hours": "16:00-21:00; Fr-Su 12:00-21:00", "phone": "+45 48484428", "ref:DK:cvr": "25308247", "ref:DK:cvr:pnummer": "1026027671", "website": "https://www.rootsrestaurant.dk/"}}, {"type": "node", "id": 8259695990, "lat": 55.8860057, "lon": 12.4399767}, {"type": "node", "id": 8259695991, "lat": 55.8859971, "lon": 12.4399913}, {"type": "node", "id": 8259695992, "lat": 55.8860145, "lon": 12.440024}, {"type": "node", "id": 8259695993, "lat": 55.8860974, "lon": 12.4399562}, {"type": "node", "id": 8259695994, "lat": 55.8861395, "lon": 12.4400354}, {"type": "node", "id": 8259695995, "lat": 55.8861807, "lon": 12.4399663}, {"type": "node", "id": 8259695996, "lat": 55.8861315, "lon": 12.4398736}, {"type": "node", "id": 8259695997, "lat": 55.8860001, "lon": 12.4399661}, {"type": "node", "id": 8282924523, "lat": 55.9880761, "lon": 12.8053133}, {"type": "node", "id": 8282924524, "lat": 55.988041, "lon": 12.8053227}, {"type": "node", "id": 8282924525, "lat": 55.9880023, "lon": 12.8050721}, {"type": "node", "id": 8768674483, "lat": 55.9470781, "lon": 12.8172044, "tags": {"amenity": "restaurant", "name": "Glumsl\u00f6vs Pizzeria"}}, {"type": "node", "id": 8842605665, "lat": 55.876574, "lon": 12.8378422, "tags": {"addr:city": "Landskrona", "addr:country": "SE", "addr:housenumber": "15B", "addr:postcode": "26136", "addr:street": "Vasagatan", "amenity": "restaurant", "contact:phone": "+46 418 43 64 30", "cuisine": "pizza;burger;kebab;pasta", "delivery": "yes", "diet:vegetarian": "yes", "level": "0", "microbrewery": "no", "name": "Escape", "opening_hours": "Mo-Fr 15:00-22:00; Sa 12:00-20:30; Su 13:00-21:00", "outdoor_seating": "no", "reservation": "no", "self_service": "no", "takeaway": "yes"}}, {"type": "node", "id": 8928838585, "lat": 55.849662, "lon": 12.5708045, "tags": {"amenity": "restaurant", "award:michelin": "the_plate_michelin", "name": "Roots", "outdoor_seating": "yes", "payment:credit_cards": "yes", "smoking": "yes"}}, {"type": "way", "id": 109391018, "nodes": [1252427332, 1252427322, 1252427365, 1252427330, 1252427356, 1252427320, 1252427310, 1252490682, 1252427354, 1252427332], "tags": {"addr:city": "R\u00e5\u00e5", "addr:country": "SE", "addr:housenumber": "20", "addr:postcode": "252 70", "addr:street": "R\u00e5\u00e5v\u00e4gen", "amenity": "restaurant", "building": "yes", "name": "Trivas", "source:address": "Helsingborgs kommun"}}, {"type": "way", "id": 139531863, "nodes": [1529539862, 1529539854, 1529539856, 1529539839, 1529539834, 1529539865, 1529539859, 1529539860, 1529539862], "tags": {"amenity": "restaurant", "building": "yes", "contact:email": "kontakt@raadvadkro.dk", "cuisine": "regional", "fvst:fixme": "fvst:no_pos", "fvst:navnelbnr": "95960", "name": "R\u00e5dvad Kro", "opening_hours": "Tu-Sa 12:00-15:00, 18:00-21:00; Su 10:00-15:00", "phone": "+45 45806162", "source": "BBR", "website": "http://www.raadvadkro.dk/", "wikidata": "Q47079521"}}, {"type": "way", "id": 171837402, "nodes": [1828091852, 1828091864, 1828091863, 1828091862, 1828091855, 1828091861, 1828091853, 1828091858, 1828091857, 1828091854, 1828091852], "tags": {"addr:city": "R\u00e5\u00e5", "addr:country": "SE", "addr:housenumber": "1", "addr:postcode": "252 70", "addr:street": "Kajgatan", "amenity": "restaurant", "building": "yes", "name": "R\u00e5\u00e5 W\u00e4rdshus", "source:address": "Helsingborgs kommun"}}, {"type": "way", "id": 199052235, "nodes": [2091030166, 2091030167, 2091030168, 2091030169, 2091030170, 2091030171, 2091032646, 2091032645, 2091032644, 2091030172, 2091030173, 2091030174, 2091032648, 2091032647, 2091032650, 2662937433, 2662937434, 2091032649, 2662937432, 2662937431, 2091030175, 2091030166], "tags": {"amenity": "restaurant", "award:michelin": "1", "building": "yes", "cuisine": "french", "fvst:navnelbnr": "660282", "name": "S\u00f8ller\u00f8d Kro", "opening_hours": "We-Su 12:00-17:00,18:00-01:00", "phone": "+45 45802505", "website": "https://www.soelleroed-kro.dk/", "wikidata": "Q12338327", "wikipedia": "da:S\u00f8ller\u00f8d Kro"}}, {"type": "way", "id": 204441492, "nodes": [2144632685, 2144632663, 2144632632, 2144632658, 2144632712, 2144632680, 2144632651, 2144632654, 2144632715, 2144632707, 2144632666, 2144632668, 2144632685], "tags": {"addr:housename": "Koppargrytan", "addr:street": "Industrigatan", "amenity": "restaurant", "building": "yes", "name": "Restaurant Koppargrytan"}}, {"type": "way", "id": 225563859, "nodes": [2343299339, 2343299311, 2343299314, 6551607381, 2343299326, 2343299339], "tags": {"amenity": "restaurant", "building": "yes", "cuisine": "regional", "fvst:navnelbnr": "553410", "name": "Spiseriet", "note": "hedder Hos Anne i FVST", "opening_hours": "Tu-Su 12:00-17:00, Th 12:00-20:00", "phone": "+45 40888252", "website": "http://spiseriet-cafe.dk/"}}, {"type": "way", "id": 236378489, "nodes": [2444109517, 2444109518, 2444109519, 2444109520, 2444109517], "tags": {"addr:city": "Rydeb\u00e4ck", "addr:country": "SE", "addr:housenumber": "169", "addr:postcode": "257 31", "addr:street": "Ytter\u00f6v\u00e4gen", "amenity": "restaurant", "building": "yes", "name": "Restaurang Tegel", "source:address": "Helsingborgs kommun"}}, {"type": "way", "id": 237779462, "nodes": [2456549772, 2456549774, 2456549776, 2456549778, 2456549780, 2456549782, 2456549784, 2456549786, 2456549772], "tags": {"amenity": "restaurant", "building": "yes"}}, {"type": "way", "id": 263284352, "nodes": [2689038136, 2689038099, 2689038094, 2689038131, 2689038136], "tags": {"amenity": "restaurant", "building": "yes", "name": "Borstahusens Hamnkrog"}}, {"type": "way", "id": 263284442, "nodes": [2689038300, 2689038311, 2689038282, 2689038281, 2689038300], "tags": {"amenity": "restaurant", "building": "yes", "cuisine": "fish", "name": "Hamnens H\u00f6rna"}}, {"type": "way", "id": 285211246, "nodes": [2888996186, 2888996175, 2888996172, 2888996182, 2888996186], "tags": {"amenity": "restaurant", "building": "yes", "cuisine": "pizza", "name": "Pizzeria Rina"}}, {"type": "way", "id": 294261689, "nodes": [2272864606, 2978243565, 2272864608, 2272864612, 2272864606], "tags": {"amenity": "restaurant", "building": "yes", "fvst:navnelbnr": "543964", "name": "J\u00e6gerhuset", "opening_hours": "12:00-15:00,18:00-21:00 \"sunday night only BBQ\"", "phone": "+45 45410447", "website": "https://www.jaegerhuset.dk/", "wikidata": "Q63457385"}}, {"type": "way", "id": 295505319, "nodes": [2992359884, 2992359887, 2992359846, 2992359845, 2992359884], "tags": {"amenity": "restaurant", "building": "yes", "cuisine": "pizza", "name": "Asmundtorps pizzeria"}}, {"type": "way", "id": 295575041, "nodes": [2993071426, 2993071428, 2993071421, 2993071422, 6316240824, 6316211263, 2993071424, 6316256082, 2993071423, 2993071425, 6316242470, 2993071427, 2993071426], "tags": {"amenity": "restaurant", "building": "yes", "cuisine": "french", "fvst:navnelbnr": "95630", "name": "Sletten", "note": "French/Nordic cuisine. Small servings, 2-3 recommend for lunch, 3-5 for dinner. Good wine list.", "opening_hours": "Tu-Th 12:00-15:00,18:00-23:00; Fr-Sa 12:00-15:00,18:00-24:00", "phone": "+45 49191321", "price": "DKK 130 per small serving, you need 2 to 5.", "smoking": "no", "website": "https://sletten.dk/en/"}}, {"type": "way", "id": 352749464, "nodes": [8259695997, 3585222650, 3585222648, 3585222653, 3585222655, 3585222654, 3585222656, 8259695996, 8259695995, 8259695994, 8259695993, 3585222652, 3585222651, 8259695992, 8259695991, 8259695990, 8259695997], "tags": {"amenity": "restaurant", "building": "yes", "cuisine": "regional", "fvst:navnelbnr": "94569", "name": "Restaurant Skovhus", "opening_hours": "We 18:00-23:00; Jul off; Dec 20-Jan 1 off", "opening_hours:kitchen": "We 18:00-20:30; Jul off; Dec 20-Jan 1 off", "website": "https://restaurantskovhus.dk/"}}, {"type": "way", "id": 365953708, "nodes": [3699525869, 3699525870, 3699525871, 4740483941, 4740483940, 3699525874, 3699525869], "tags": {"amenity": "restaurant", "building": "yes", "cuisine": "regional", "fvst:navnelbnr": "522857", "name": "Strandm\u00f8llekroen", "opening_hours": "Sep-Apr Tu-Sa 12:00-15:00,15:00-16:45,18:00-21:00,Su 12:00-16:00; May-Aug 12:00-15:00,15:00-16:45,18:00-21:00", "phone": "+45 39630104", "website": "https://www.strandmollekroen.dk/"}}, {"type": "way", "id": 614461204, "nodes": [5812310600, 5812310601, 5812310602, 5812310603, 5812310604, 5812310600], "tags": {"amenity": "restaurant", "building": "yes", "name": "Bistr\u00e5\u00e5"}}, {"type": "way", "id": 614737295, "nodes": [5814410570, 5814410571, 5814410576, 5814410577, 5814410575, 5814410572, 5814410574, 5814410573, 5814410570], "tags": {"amenity": "restaurant", "building": "yes", "name": "P\u00e5 Piren"}}, {"type": "way", "id": 891179746, "nodes": [2497034503, 8282924523, 8282924524, 8282924525, 2497034505, 2497034503], "tags": {"addr:city": "Gantofta", "addr:housenumber": "19", "addr:postcode": "253 73", "addr:street": "Norra Kvistoftav\u00e4gen", "amenity": "restaurant", "bar": "no", "building": "yes", "cuisine": "pizza;kebab;burger", "delivery": "no", "name": "Gantofta Pizzeria", "opening_hours": "Tu-Th 16:00-21:00; Fr,Sa 14:00-22:00; Su 14:00-21:00", "opening_hours:covid19": "open", "outdoor_seating": "no", "phone": "+46 42 \u2013 22 22 33", "takeaway": "yes", "website": "https://www.pizzeriagantofta.se/", "wheelchair": "yes"}}]}