{"version": 0.6, "generator": "Overpass API 0.7.56.9 76e5016d", "osm3s": {"timestamp_osm_base": "2021-09-21T11:15:59Z", "copyright": "The data included in this document is from www.openstreetmap.org. The data is made available under ODbL."}, "elements": [{"type": "node", "id": 289867362, "lat": 55.8649212, "lon": 12.3849015, "tags": {"amenity": "restaurant", "cuisine": "steak", "fvst:navnelbnr": "740584", "name": "Blovstr\u00f8d Kro", "opening_hours": "Mo-Fr 16:00-22:00+; Sa-Su 12:00-22:00+", "website": "http://www.blovstrodkro.dk/"}}, {"type": "node", "id": 529964650, "lat": 55.9346232, "lon": 12.2991435, "tags": {"amenity": "restaurant", "fvst:navnelbnr": "109666", "name": "Leonora Christine", "old_name": "Slotsherrens Kro", "opening_hours": "10:00-17:00; Jan-Mar Mo-Fr 11:30-15:30,Sa-Su 10:00-15:30", "outdoor_seating": "yes", "phone": "+45 48267516", "website": "https://www.leonora.dk/"}}, {"type": "node", "id": 719419925, "lat": 55.8029532, "lon": 12.3864181, "tags": {"alt_name": "Marina Fures\u00f8bad", "amenity": "restaurant", "fvst:navnelbnr": "760344", "name": "Fures\u00f8 Marina", "name:en": "Restaurant Fures\u00f8bad", "opening_hours": "We-Fr 12:00-22:00; Sa 11:00-22:00; Su 11:00-16:00", "phone": "+45 44956838", "website": "https://www.marina-en.dk/"}}, {"type": "node", "id": 842672716, "lat": 55.929164, "lon": 12.30331, "tags": {"amenity": "restaurant", "cuisine": "sushi", "description": "Sushirestaurant", "fvst:fixme": "wrong location in fvst", "fvst:navnelbnr": "521635", "name": "Nyu Sakura", "opening_hours": "Su-Th 14:00-21:30; Fr-Sa 12:00-21:30", "phone": "+45 48 24 66 88", "website": "https://www.nyu-sakura.dk/hilleroed.htm", "wheelchair": "no"}}, {"type": "node", "id": 843316398, "lat": 55.8370405, "lon": 12.0562194, "tags": {"amenity": "restaurant", "fvst:navnelbnr": "565852", "name": "Restaurant Toldboden", "note": "Kitchen opening hours, the restaurant is open later", "opening_hours": "11:30-15:30,18:00-21:30", "phone": "+45 28803600", "website": "http://www.toldboden.info/"}}, {"type": "node", "id": 850517008, "lat": 55.8118328, "lon": 12.3768477, "tags": {"amenity": "restaurant", "cuisine": "italian", "fvst:navnelbnr": "531470", "name": "Big Due", "phone": "+45 44992818", "website": "http://www.bigdue.dk/"}}, {"type": "node", "id": 1080098868, "lat": 56.1191973, "lon": 12.349223, "tags": {"amenity": "restaurant", "fvst:fixme": "fvst position missing, fixed from Nominatim", "fvst:name": "Fyrkroen anno 1772", "fvst:navnelbnr": "740597", "name": "Fyrkroen", "opening_hours": "Apr Th-Sa 12:00-20:00,Su 12:00-17:00; May-Jun Tu-Su 12:00-21:00; Jul-Aug Mo-Su 12:00-21:00; Sep Sa 12:00-20:00,Su 12:00-17:00; 12:00-21:00; Dec Sa-Su 12:00-17:00; Dec 25-Dec 26 12:00-17:00; easter-3days - easter+2days 12:00-17:00", "outdoor_seating": "yes", "phone": "+45 48300225", "website": "https://www.fyrkroen.dk/"}}, {"type": "node", "id": 1456663235, "lat": 56.1274947, "lon": 12.3078952, "tags": {"amenity": "restaurant", "capacity": "50", "cuisine": "seafood", "email": "estaurant@far-til-4.dk", "fvst:navnelbnr": "109685", "name": "Far til 4", "opening_hours": "12:00-15:30,17:00-20:20 \"kitchen\"", "outdoor_seating": "yes", "phone": "+45 49717672", "website": "https://www.far-til-4.dk/"}}, {"type": "node", "id": 1531096316, "lat": 55.823277, "lon": 12.0124421}, {"type": "node", "id": 1531096347, "lat": 55.8233057, "lon": 12.0128403}, {"type": "node", "id": 1531096544, "lat": 55.823103, "lon": 12.0129279}, {"type": "node", "id": 1531096806, "lat": 55.8232381, "lon": 12.0129548}, {"type": "node", "id": 1531096835, "lat": 55.8233407, "lon": 12.0124548}, {"type": "node", "id": 1531096837, "lat": 55.8232332, "lon": 12.013033}, {"type": "node", "id": 1531096856, "lat": 55.8233385, "lon": 12.0128468}, {"type": "node", "id": 1531096967, "lat": 55.8232707, "lon": 12.012542}, {"type": "node", "id": 1531096991, "lat": 55.8232319, "lon": 12.0125343}, {"type": "node", "id": 1531097007, "lat": 55.8232929, "lon": 12.0130449}, {"type": "node", "id": 1542078985, "lat": 55.9349438, "lon": 11.908867}, {"type": "node", "id": 1542079031, "lat": 55.9349722, "lon": 11.9092375}, {"type": "node", "id": 1542079039, "lat": 55.9350295, "lon": 11.908821}, {"type": "node", "id": 1542079196, "lat": 55.9350598, "lon": 11.9092161}, {"type": "node", "id": 1642918583, "lat": 55.9648833, "lon": 11.8496657, "tags": {"amenity": "restaurant", "fvst:fixme": "fvst:no_pos", "fvst:navnelbnr": "932873", "name": "Hundested Kro", "opening_hours": "12:00-22:00", "phone": "+45 47937538", "website": "https://hundested-kro.dk/"}}, {"type": "node", "id": 1642931752, "lat": 55.9435255, "lon": 11.8653837, "tags": {"amenity": "restaurant", "fvst:navnelbnr": "757426", "name": "Skipperstuen", "opening_hours": "Apr-Aug We-Su 11:30-21:00 \"approximate season\"", "phone": "+45 47984016", "website": "http://restaurantskipperstuen.dk/"}}, {"type": "node", "id": 1710544384, "lat": 55.933249, "lon": 12.2964227, "tags": {"amenity": "restaurant", "cuisine": "steak", "fvst:name": "Jensens B\u00f8fhus", "fvst:navnelbnr": "501738", "name": "Jensens B\u00f8fhus Hiller\u00f8d", "opening_hours": "11:30-22:00", "phone": "+45 63134516", "takeaway": "yes", "website": "https://www.jensens.com/restaurant/hilleroed/"}}, {"type": "node", "id": 1834676605, "lat": 56.0127143, "lon": 11.9641133, "tags": {"amenity": "restaurant", "fvst:navnelbnr": "716930", "name": "Le Papillon", "opening_hours": "12:00-24:00"}}, {"type": "node", "id": 1834676615, "lat": 56.0129498, "lon": 11.968541, "tags": {"amenity": "restaurant", "fvst:navnelbnr": "540227", "name": "Lisestuen", "opening_hours": "11:00-24:00"}}, {"type": "node", "id": 1931803440, "lat": 55.9525443, "lon": 12.2509924}, {"type": "node", "id": 1931803441, "lat": 55.9525616, "lon": 12.2508717}, {"type": "node", "id": 1931803442, "lat": 55.952699, "lon": 12.2513907}, {"type": "node", "id": 1931803443, "lat": 55.952708, "lon": 12.2512901}, {"type": "node", "id": 1931803444, "lat": 55.9527185, "lon": 12.2511801}, {"type": "node", "id": 1931803445, "lat": 55.9527267, "lon": 12.2510836}, {"type": "node", "id": 1931803446, "lat": 55.9528446, "lon": 12.2511815}, {"type": "node", "id": 1931803447, "lat": 55.9527508, "lon": 12.2512995}, {"type": "node", "id": 1931803448, "lat": 55.9527605, "lon": 12.2511949}, {"type": "node", "id": 1931803449, "lat": 55.952774, "lon": 12.2510916}, {"type": "node", "id": 1931803450, "lat": 55.9529265, "lon": 12.2509776}, {"type": "node", "id": 1931803451, "lat": 55.9528311, "lon": 12.2513223}, {"type": "node", "id": 1931803452, "lat": 55.952982, "lon": 12.2509977}, {"type": "node", "id": 1931803453, "lat": 55.952919, "lon": 12.2510219}, {"type": "node", "id": 1931803454, "lat": 55.9529377, "lon": 12.2512794}, {"type": "node", "id": 1931803456, "lat": 55.9529648, "lon": 12.2514671}, {"type": "node", "id": 1931803457, "lat": 55.9529888, "lon": 12.2512995}, {"type": "node", "id": 1931803458, "lat": 55.9529775, "lon": 12.2513773}, {"type": "node", "id": 1931803459, "lat": 55.9529805, "lon": 12.2510232}, {"type": "node", "id": 1931803460, "lat": 55.9529888, "lon": 12.2510272}, {"type": "node", "id": 1931803461, "lat": 55.9530308, "lon": 12.2509816}, {"type": "node", "id": 1931803463, "lat": 55.9529986, "lon": 12.2509709}, {"type": "node", "id": 2061747806, "lat": 55.9802927, "lon": 12.3816321}, {"type": "node", "id": 2061747808, "lat": 55.9803575, "lon": 12.3816265}, {"type": "node", "id": 2061747817, "lat": 55.9802306, "lon": 12.3814576}, {"type": "node", "id": 2061747818, "lat": 55.9802938, "lon": 12.3814067}, {"type": "node", "id": 2061747823, "lat": 55.9802392, "lon": 12.3815944}, {"type": "node", "id": 2061747824, "lat": 55.9802934, "lon": 12.3815623}, {"type": "node", "id": 2061747829, "lat": 55.9803657, "lon": 12.3813794}, {"type": "node", "id": 2375942309, "lat": 55.8329556, "lon": 12.0269774, "tags": {"amenity": "restaurant", "cuisine": "regional", "fvst:name": "Restaurant Egelunden - Frederikssund Golfklub v/Frank Setina", "fvst:navnelbnr": "95749", "name": "Egelunden", "opening_hours": "Mo-Sa 11:00-22:00; Su,PH 11:00-18:00", "opening_hours:kitchen": "Mo-Sa 11:00-21:00; Su,PH 11:00-17:00", "operator": "Frederikssund Golfklub", "phone": "+45 47310877"}}, {"type": "node", "id": 2413494952, "lat": 55.952943, "lon": 12.2512203}, {"type": "node", "id": 2508538621, "lat": 55.812374, "lon": 12.371541, "tags": {"amenity": "restaurant", "cuisine": "indian", "fvst:navnelbnr": "916878", "name": "Koriander", "opening_hours": "15:00-21:00", "phone": "+45 32168080", "takeaway": "yes"}}, {"type": "node", "id": 2539745189, "lat": 56.0081197, "lon": 11.9910742}, {"type": "node", "id": 2539745192, "lat": 56.0081381, "lon": 11.9909936}, {"type": "node", "id": 2539745209, "lat": 56.0082503, "lon": 11.9910373}, {"type": "node", "id": 2539745210, "lat": 56.008261, "lon": 11.9909745}, {"type": "node", "id": 2539745212, "lat": 56.0082847, "lon": 11.9911602}, {"type": "node", "id": 2539745213, "lat": 56.0082862, "lon": 11.9910455}, {"type": "node", "id": 2539745214, "lat": 56.0082916, "lon": 11.990999}, {"type": "node", "id": 2539745215, "lat": 56.0083015, "lon": 11.9911384}, {"type": "node", "id": 2539745219, "lat": 56.0083091, "lon": 11.9911684}, {"type": "node", "id": 2539745222, "lat": 56.0083259, "lon": 11.991066}, {"type": "node", "id": 2539745224, "lat": 56.008358, "lon": 11.9909294}, {"type": "node", "id": 2539745227, "lat": 56.0083832, "lon": 11.9910933}, {"type": "node", "id": 2539745229, "lat": 56.008413, "lon": 11.9909663}, {"type": "node", "id": 2539745231, "lat": 56.0084405, "lon": 11.991234}, {"type": "node", "id": 2539745233, "lat": 56.0084527, "lon": 11.9911315}, {"type": "node", "id": 2554125903, "lat": 55.8698215, "lon": 12.357102, "tags": {"amenity": "restaurant", "cuisine": "chinese", "fvst:navnelbnr": "94933", "name": "Shun Feng", "opening_hours": "12:30-22:30", "phone": "+45 48143906", "website": "http://www.shun-feng.dk/"}}, {"type": "node", "id": 2858418834, "lat": 55.8329205, "lon": 12.057084, "tags": {"amenity": "restaurant", "fvst:navnelbnr": "500861", "name": "Kalv\u00f8en", "note": "part event venue, part restaurant", "opening_hours": "Fr; Nov 10 \"Friday steak, mortens aften, Christmas buffet\" || We 17:30+ \"Mad- og vinklubben (membership required, reservation required)\"", "phone": "+45 47310225", "website": "https://www.kalvoe.dk/"}}, {"type": "node", "id": 2918525645, "lat": 55.9040376, "lon": 12.3262075, "tags": {"amenity": "restaurant", "cuisine": "international", "fvst:navnelbnr": "556520", "name": "Nys\u00f8gaard", "opening_hours": "Su-Th 10:00-19:30; Fr 10:00-19:30; Sa 10:00-18:00", "website": "http://nysogaard.dk"}}, {"type": "node", "id": 3007158577, "lat": 55.8392351, "lon": 12.0316788, "tags": {"amenity": "restaurant", "fvst:navnelbnr": "525180", "name": "F\u00e6rgelunden", "opening_hours": "Mo-Th", "phone": "+45 60802135", "website": "http://www.motel-kursus.dk/"}}, {"type": "node", "id": 3193278399, "lat": 55.9803028, "lon": 12.3813697}, {"type": "node", "id": 3193278400, "lat": 55.9803571, "lon": 12.3815483}, {"type": "node", "id": 3193278401, "lat": 55.9803672, "lon": 12.3815448}, {"type": "node", "id": 3198051106, "lat": 55.8082506, "lon": 12.3590847, "tags": {"amenity": "restaurant", "cuisine": "chinese", "fvst:navnelbnr": "108747", "name": "Lees K\u00f8kken", "opening_hours": "16:00-21:00", "takeaway": "yes", "website": "http://www.leeskoekken.dk/"}}, {"type": "node", "id": 3198051107, "lat": 55.8082335, "lon": 12.358848, "tags": {"amenity": "restaurant", "cuisine": "japanese", "fvst:navnelbnr": "950568", "name": "Kawaii Zushi", "opening_hours": "Mo-Th 14:00-21:00, Fr-Su 12:00-21:00", "phone": "+45 44957002", "website": "http://www.kawaiizushi.dk/"}}, {"type": "node", "id": 3198051108, "lat": 55.8091993, "lon": 12.3639126, "tags": {"amenity": "restaurant", "cuisine": "regional", "fvst:navnelbnr": "92874", "name": "Tante Maren", "opening_hours": "12:00-22:00", "phone": "+45 44991172", "takeaway": "yes", "website": "https://www.tantemaren.dk/"}}, {"type": "node", "id": 3359327168, "lat": 55.8392009, "lon": 12.0612437, "tags": {"amenity": "restaurant", "cuisine": "italian", "fvst:navnelbnr": "565484", "name": "Bollinis familie restaurant", "opening_hours": "Su-Th 12:00-21:00; Fr-Sa 12:00-22:00", "opening_hours:kitchen": "12:00-21:00", "phone": "+45 47383929", "takeaway": "yes", "website": "https://www.bollinis.dk/"}}, {"type": "node", "id": 3407752897, "lat": 55.9341794, "lon": 12.3119622, "tags": {"amenity": "restaurant", "cuisine": "regional", "fvst:name": "HUC Slots Bowl & Restaurant", "fvst:navnelbnr": "768812", "name": "Slotsbowl M\u00f8ntporten", "opening_hours": "Tu-We 12:00-22:00, Th 12:00-23:00, Fr 12:00-02:00, Sa 12:00-02:00, Su 11:00-20:00; Jul Tu-Th 13:00-22:00,Fr-Sa 13:00-24:00,Su 12:00-20:00", "website": "http://www.slots-bowl.dk/"}}, {"type": "node", "id": 3499959738, "lat": 56.1250163, "lon": 12.3071328, "tags": {"amenity": "restaurant", "cuisine": "thai", "fvst:navnelbnr": "552303", "name": "Bangkok Take Away", "opening_hours": "Mo off;Tu-Su 16:00-21:00", "phone": "+45 24 77 33 24", "takeaway": "only"}}, {"type": "node", "id": 3647749248, "lat": 55.9721227, "lon": 12.022591, "tags": {"amenity": "restaurant", "cuisine": "asian", "fvst:navnelbnr": "671644", "name": "\u00d8stens Konge", "opening_hours": "Mo-Th 12:00-21:30; Fr-Sa 12:00-22:00; Su 14:00-21:30", "phone": "+45 32186888", "website": "http://www.ok3300.dk/"}}, {"type": "node", "id": 3723197446, "lat": 56.1258219, "lon": 12.3057759, "tags": {"amenity": "restaurant", "fvst:name": "EN-ES", "fvst:navnelbnr": "757560", "name": "Saseline", "opening_hours": "11:00-22:00", "phone": "+45 48301285"}}, {"type": "node", "id": 3770625662, "lat": 55.9325936, "lon": 12.2988294, "tags": {"alt_name": "Ribhouse", "amenity": "restaurant", "cuisine": "steak", "fvst:fixme": "fvst position missing, fixed from Nominatim", "fvst:navnelbnr": "125054", "name": "Ribhouse", "opening_hours": "Su-Th 11:00-22:00; Fr-Sa 11:00-23:00", "phone": "+45 43525400", "takeaway": "yes", "website": "https://ribhouse.dk/start/?sted=Hiller%C3%B8d"}}, {"type": "node", "id": 3797625676, "lat": 55.83781, "lon": 12.276028, "tags": {"amenity": "restaurant", "fvst:navnelbnr": "91226", "name": "Oriental Chinese Restaurant", "opening_hours": "12:00-21:30", "phone": "+45 48187800", "takeaway": "yes", "website": "http://www.48187800.dk/"}}, {"type": "node", "id": 3919477955, "lat": 56.125523, "lon": 12.308064, "tags": {"amenity": "restaurant", "cuisine": "regional", "fvst:name": "Restaurant Brasseriet", "fvst:navnelbnr": "700416", "name": "Brasseriet Gilleleje", "opening_hours": "11:30-21:00", "outdoor_seating": "yes", "phone": "+45 48302130", "website": "https://www.brasseriet-gilleleje.dk/"}}, {"type": "node", "id": 3920593387, "lat": 55.9207478, "lon": 12.296762, "tags": {"amenity": "restaurant", "cuisine": "danish", "fvst:navnelbnr": "97628", "name": "Restaurant Krydderiet", "opening_hours": "12:30-16:00,18:00-22:30; Su off", "operator": "Hiller\u00f8d Hotel", "phone": "+45 48240800", "website": "https://restaurantkrydderiet.dk/"}}, {"type": "node", "id": 3920710177, "lat": 55.9958782, "lon": 12.2231234, "tags": {"amenity": "restaurant", "cuisine": "regional", "fvst:navnelbnr": "717050", "name": "Restaurant Pibem\u00f8lle", "opening_hours": "Mo-Sa 11:00-20:00; Su 11:00-17:00", "phone": "+45 48790103", "website": "http://xn--restaurant-pibemlle-b8b.dk/"}}, {"type": "node", "id": 3921251969, "lat": 56.1251518, "lon": 12.3083104, "tags": {"amenity": "restaurant", "cuisine": "seafood", "fvst:navnelbnr": "563909", "name": "Gilleleje Havn", "opening_hours": "11:30-17:00,18:00+", "phone": "+45 48301620", "website": "https://www.gillelejehavn.dk/"}}, {"type": "node", "id": 3921275936, "lat": 56.0819758, "lon": 12.3663811, "tags": {"alt_name": "Gilleleje Golfklubs Restaurant", "amenity": "restaurant", "fvst:navnelbnr": "744487", "name": "Restaurant Gilleleje Golfklub", "opening_hours": "Apr-Oct Sa,Su,PH 08:00-18:00; Tu-Fr 09:00-21:00; May-Aug Mo 09:00-18:00", "website": "http://ggk.dk/restaurant/"}}, {"type": "node", "id": 3921317511, "lat": 56.061997, "lon": 12.091275, "tags": {"amenity": "restaurant", "fvst:name": "Restaurant Sankt Helene", "fvst:navnelbnr": "706886", "name": "Sankt Helene", "website": "http://www.helene.dk/en/restaurant_sofie/restaurant_sofie/"}}, {"type": "node", "id": 3921846696, "lat": 56.098874, "lon": 12.2182836, "tags": {"amenity": "restaurant", "fvst:name": "De 3 \u00c5rtier", "fvst:navnelbnr": "756441", "name": "Kongernes Feriepark"}}, {"type": "node", "id": 3921846698, "lat": 56.097709, "lon": 12.158943, "tags": {"amenity": "restaurant", "fvst:navnelbnr": "749045", "name": "Restaurant S\u00f8stjernen", "phone": "+45 48715327"}}, {"type": "node", "id": 3921974215, "lat": 56.0224095, "lon": 12.1939754, "tags": {"amenity": "restaurant", "cuisine": "chinese;sushi", "fvst:navnelbnr": "110417", "name": "Heaven Crane", "opening_hours": "13:00-22:00; 11:30-22:00; Dec 24-25 off", "phone": "+45 48798383", "takeaway": "yes", "website": "http://heavencrane.dk/"}}, {"type": "node", "id": 3922063007, "lat": 56.01896, "lon": 12.0616984, "tags": {"amenity": "restaurant", "cuisine": "danish;french", "fvst:navnelbnr": "90355", "name": "Tingg\u00e5rden", "opening_hours": "May-Oct We-Su 17:30+; week 29-34 Mo-Su 17:30+; Nov-Apr Th-Sa 17:30+", "phone": "+45 48712235", "website": "http://www.tinggarden.dk/restauranten/restauranten.htm"}}, {"type": "node", "id": 3922063037, "lat": 55.9220933, "lon": 12.0719437}, {"type": "node", "id": 3922075404, "lat": 55.929843, "lon": 12.3032786, "tags": {"amenity": "restaurant", "cuisine": "italian", "fvst:navnelbnr": "91728", "name": "Casa Nostra", "opening_hours": "10:00-22:00", "phone": "+45 48251011", "website": "https://www.casa-nostra.dk/"}}, {"type": "node", "id": 3922190054, "lat": 55.9949575, "lon": 12.0170523, "tags": {"amenity": "restaurant", "fvst:navnelbnr": "577361", "name": "Restauranten AGC", "phone": "+45 81261937", "website": "http://agc.dk/index.php/home/restaurant"}}, {"type": "node", "id": 3922262378, "lat": 55.963901, "lon": 11.85057, "tags": {"amenity": "restaurant", "cuisine": "pizza", "fvst:navnelbnr": "568777", "name": "Bellona", "opening_hours": "Mo-Sa 11:00-22:00", "phone": "+45 61995187", "website": "http://www.bellonapizza.dk/"}}, {"type": "node", "id": 3926006318, "lat": 55.8703149, "lon": 12.3565273, "tags": {"amenity": "restaurant", "cuisine": "sushi", "fvst:navnelbnr": "659422", "name": "You Sushi", "opening_hours": "12:00-21:00; Su 15:00-21:00", "website": "http://yousushi.dk/"}}, {"type": "node", "id": 3926975798, "lat": 55.944876, "lon": 12.04885, "tags": {"amenity": "restaurant", "cuisine": "burger", "fvst:navnelbnr": "566548", "name": "57 Burger og \u00d8l", "opening_hours": "11:00-22:00"}}, {"type": "node", "id": 3927818749, "lat": 55.821529, "lon": 12.270234, "tags": {"amenity": "restaurant", "check_date": "2021-05-09", "name": "Restaurant M\u00f8lle\u00e5en", "opening_hours": "Apr-Oct Mo-Sa 10:00-21:00; Su,PH 10:00-17:00", "operator": "M\u00f8lle\u00e5ens Golf Klub", "outdoor_seating": "yes", "phone": "+45 48188679", "website": "https://www.mgk.dk/"}}, {"type": "node", "id": 3927828879, "lat": 55.844416, "lon": 12.174236, "tags": {"amenity": "restaurant", "fvst:navnelbnr": "572402", "name": "Restaurant Ciao Ciao", "takeaway": "yes"}}, {"type": "node", "id": 3927867712, "lat": 55.9335658, "lon": 12.2993543, "tags": {"amenity": "restaurant", "fvst:navnelbnr": "109666", "name": "Restaurant Leonora", "opening_hours": "11:30-15:30; Nov 1-Mar 20 Sa-Su off; Dec 23-Jan 8 off", "outdoor_seating": "yes", "phone": "+45 48267516", "website": "https://www.leonora.dk/"}}, {"type": "node", "id": 3927878375, "lat": 55.846046, "lon": 12.171685, "tags": {"amenity": "restaurant", "cuisine": "thai", "fvst:navnelbnr": "795588", "name": "Bangkok Restaurant", "opening_hours": "17:00-22:00", "website": "http://www.bangkokrestaurant.dk/"}}, {"type": "node", "id": 3929760982, "lat": 55.9324001, "lon": 12.2978051, "tags": {"amenity": "restaurant", "fvst:navnelbnr": "91219", "name": "Mandarin", "opening_hours": "12:30-22:00; Mo off", "phone": "+45 48251125", "website": "http://www.mandarinen.dk/"}}, {"type": "node", "id": 3929777440, "lat": 55.9289112, "lon": 12.2941427, "tags": {"amenity": "restaurant", "cuisine": "sushi", "delivery": "yes", "fvst:navnelbnr": "518312", "name": "9-Ni-Running Sushi", "opening_hours": "12:00-22:00", "takeaway": "yes", "website": "http://www.9-ni-sushi3400.dk/"}}, {"type": "node", "id": 3930849562, "lat": 55.839377, "lon": 12.057979, "tags": {"amenity": "restaurant", "cuisine": "sushi", "fvst:navnelbnr": "654804", "name": "Hope Sushi", "opening_hours": "15:00-20:00; Tu off", "website": "http://www.hopesushi.dk/"}}, {"type": "node", "id": 3930849563, "lat": 55.8400712, "lon": 12.0640934, "tags": {"amenity": "restaurant", "cuisine": "danish;turkish", "fvst:navnelbnr": "91145", "name": "Restauration Regnbuen", "opening_hours": "11:00-23:00; Su,PH 12:00-23:00", "phone": "+45 47385810", "website": "http://www.restaurantregnbuen.dk/"}}, {"type": "node", "id": 3931427621, "lat": 55.839608, "lon": 12.05878, "tags": {"amenity": "restaurant", "cuisine": "steak", "fvst:navnelbnr": "920164", "name": "Larsens B\u00f8fhus", "opening_hours": "Mo-Su 16:00-21:00", "phone": "+45 47314466", "website": "https://larsensbofhus.dk/"}}, {"type": "node", "id": 3931427624, "lat": 55.794527, "lon": 12.15755, "tags": {"amenity": "restaurant", "cuisine": "pizza", "delivery": "yes", "fvst:navnelbnr": "520602", "name": "Cafe Dropp Inn Pizzaria", "opening_hours": "Mo-Fr 11:00-22:00; Sa-Su 12:00-22:00; PH 12:00-22:00", "phone": "+45 47178081", "takeaway": "yes", "website": "http://cafedropinn.dk/"}}, {"type": "node", "id": 3933180847, "lat": 55.8394297, "lon": 12.0595457, "tags": {"amenity": "restaurant", "cuisine": "sushi", "fvst:fixme": "fvst:no_pos", "fvst:navnelbnr": "125603", "name": "YaYa-SuShi", "opening_hours": "15:00-22:00", "phone": "+45 47330032", "website": "http://yayasushi.dk/"}}, {"type": "node", "id": 3935763599, "lat": 55.8333515, "lon": 12.3380065, "tags": {"amenity": "restaurant", "fvst:navnelbnr": "575883", "name": "The Waters", "note": "Club members have priority", "opening_hours": "Apr-Oct 12:00-15:30,18:00-21:00", "phone": "+45 44342369", "website": "https://thewaters.dk/"}}, {"type": "node", "id": 4024784398, "lat": 56.125214, "lon": 12.304834, "tags": {"amenity": "restaurant", "cuisine": "pizza", "fvst:navnelbnr": "577888", "name": "Babino", "opening_hours": "11:00-22:00", "phone": "+45 48301010", "website": "http://www.babinorestaurant.dk/"}}, {"type": "node", "id": 4261836176, "lat": 56.0546536, "lon": 12.1191656, "tags": {"amenity": "restaurant", "cuisine": "regional", "fvst:navnelbnr": "647576", "name": "Rabarbergaarden", "phone": "+45 23937201", "website": "http://www.rabarbergaarden.dk/"}}, {"type": "node", "id": 4261837129, "lat": 55.9270073, "lon": 12.3100319, "tags": {"amenity": "restaurant", "cuisine": "sushi", "fvst:navnelbnr": "647581", "name": "You Sushi Hiller\u00f8d Aps", "phone": "+45 32101818"}}, {"type": "node", "id": 4328186514, "lat": 56.1179312, "lon": 12.2419285, "tags": {"amenity": "restaurant", "cuisine": "moroccan", "fvst:navnelbnr": "93639", "name": "Casablanca", "phone": "+45 48354477", "website": "http://www.casablanca-cafe.dk/"}}, {"type": "node", "id": 4397179260, "lat": 55.9630661, "lon": 11.8505295, "tags": {"amenity": "restaurant", "cuisine": "sm\u00f8rrebr\u00f8d", "fvst:navnelbnr": "96336", "name": "Schmidts", "opening_hours": "11:00-20:00; Sa-Su 12:00-20:00; PH 12:00-20:00", "phone": "+45 47983301", "website": "http://www.schmidtsmenu.dk/"}}, {"type": "node", "id": 4401225555, "lat": 55.8162728, "lon": 12.3514859, "tags": {"amenity": "restaurant", "fvst:navnelbnr": "121561", "name": "BITE Restaurant", "opening_hours": "18:00-21:30", "phone": "+45 44342500", "website": "http://biterestaurant.dk/"}}, {"type": "node", "id": 4401225558, "lat": 55.8240095, "lon": 12.3049278, "tags": {"amenity": "restaurant", "fvst:navnelbnr": "125622", "name": "Drive In Bio Restaurant", "operator": "Lynge Drive In Bio"}}, {"type": "node", "id": 4401850050, "lat": 55.869275, "lon": 12.357558, "tags": {"amenity": "restaurant", "cuisine": "italian", "fvst:name": "Italiensk Restaurant Amarone", "fvst:navnelbnr": "95943", "int_name": "Amarone", "name": "Amarone", "opening_hours": "16:00-23:00", "opening_hours:kitchen": "16:00-22:00", "phone": "+45 48175099"}}, {"type": "node", "id": 4404068193, "lat": 55.8326884, "lon": 12.2749201, "tags": {"alt_name": "Lynge Kro Restaurant", "amenity": "restaurant", "fvst:name": "CPH Lynge Kro", "fvst:navnelbnr": "982788", "name": "M\u00f8lle\u00e5en", "opening_hours": "17:00-21:00; Sa 12:00-22:00; Su 12:00-16:00", "phone": "+45 48187788", "ref:DK:cvr": "41475447", "ref:DK:cvr:pnummer": "1025981339", "website": "http://www.hotellyngekro.dk/"}}, {"type": "node", "id": 4405710646, "lat": 55.9209094, "lon": 12.2986662, "tags": {"amenity": "restaurant", "fvst:name": "Frederiksborg Centret - Hiller\u00f8d Restaurant", "fvst:navnelbnr": "91474", "name": "Restaurant F"}}, {"type": "node", "id": 4536881147, "lat": 55.962789, "lon": 11.851257, "tags": {"amenity": "restaurant", "cuisine": "chinese", "fvst:name": "Yo Yo Restaurantionsselskabet", "fvst:navnelbnr": "548031", "name": "Yo Yo", "opening_hours": "PH,Mo-Su 12:00-22:00", "phone": "+45 36168168", "website": "http://www.yoyo-hundested.dk/"}}, {"type": "node", "id": 4549578491, "lat": 56.0221744, "lon": 12.2003742, "tags": {"amenity": "restaurant", "fvst:fixme": "fvst position missing, fixed from Nominatim", "fvst:navnelbnr": "553932", "name": "Restaurant Palermo", "opening_hours": "11:00-21:00; Su 12:00-21:00", "website": "http://www.palermopizzeria-helsinge.dk/"}}, {"type": "node", "id": 4569197382, "lat": 56.1247228, "lon": 12.3062086, "tags": {"amenity": "restaurant", "fvst:navnelbnr": "794417", "name": "Bolv\u00e6rket", "opening_hours": "Mo-Su 11:00-21:00", "website": "http://kulturhavngilleleje.dk/da/bolvaerket.aspx"}}, {"type": "node", "id": 4716614129, "lat": 56.1256002, "lon": 12.3066964, "tags": {"alt_name": "Bistro No 3", "amenity": "restaurant", "fvst:name": "Bistro no. 3", "fvst:navnelbnr": "698304", "name": "Brasseriet Gilleleje", "phone": "+45 48302130"}}, {"type": "node", "id": 4721201096, "lat": 55.838356, "lon": 12.057819, "tags": {"amenity": "restaurant", "cuisine": "indian", "fvst:navnelbnr": "698342", "name": "Dawat Indian Restaurant"}}, {"type": "node", "id": 4995053796, "lat": 55.837023, "lon": 12.065127, "tags": {"amenity": "restaurant", "fvst:name": "Lillys restaurant", "fvst:navnelbnr": "746028", "name": "Lillys sm\u00f8rrebr\u00f8d og famile restaurant", "phone": "+45 34118997"}}, {"type": "node", "id": 5301933017, "lat": 55.965775, "lon": 12.029289, "tags": {"amenity": "restaurant", "cuisine": "sm\u00f8rrebr\u00f8d", "fvst:navnelbnr": "716390", "name": "Hos Vipsen", "takeaway": "only"}}, {"type": "node", "id": 5418118107, "lat": 55.8703658, "lon": 12.3561386, "tags": {"amenity": "restaurant", "cuisine": "japanese", "fvst:fixme": "fvst position missing, fixed from overpassturbo/osak", "fvst:name": "Yakiniku - LXD", "fvst:navnelbnr": "905018", "name": "Yakiniku"}}, {"type": "node", "id": 5600720438, "lat": 56.0166957, "lon": 12.0460478, "tags": {"amenity": "restaurant", "cuisine": "steak_house", "fvst:fixme": "fvst:no_pos", "fvst:navnelbnr": "950043", "name": "Restaurant Br\u00f8l", "opening_hours": "17:30-21:00; Mo-Tu off", "phone": "+45 23809980", "website": "https://www.restaurantbrol.dk/"}}, {"type": "node", "id": 5631224539, "lat": 56.0594235, "lon": 12.0736468, "tags": {"amenity": "restaurant", "fvst:navnelbnr": "738426", "name": "Tisvilde Kro"}}, {"type": "node", "id": 5809477185, "lat": 55.9349709, "lon": 11.9088603}, {"type": "node", "id": 5809477186, "lat": 55.934969, "lon": 11.9088357}, {"type": "node", "id": 5869328147, "lat": 56.098859, "lon": 12.218128, "tags": {"amenity": "restaurant", "fvst:navnelbnr": "745598", "name": "Restaurant G\u00e5rdhaven"}}, {"type": "node", "id": 5873863081, "lat": 55.947591, "lon": 11.865054, "tags": {"amenity": "restaurant", "fvst:name": "Lyn\u00e6s hotel og selvskabslokaler", "fvst:navnelbnr": "758955", "name": "Lyn\u00e6s Kro", "opening_hours": "17:00-21:00; Th-Mo 12:00-21:00", "website": "http://www.lynaes-kro.dk/"}}, {"type": "node", "id": 5874033810, "lat": 55.930718, "lon": 12.305587, "tags": {"amenity": "restaurant", "cuisine": "sushi", "fvst:navnelbnr": "755111", "name": "Unkai sushi restaurant"}}, {"type": "node", "id": 6068763526, "lat": 55.933054, "lon": 12.297954, "tags": {"amenity": "restaurant", "cuisine": "japanese", "fvst:navnelbnr": "764004", "name": "Restaurant Royal Taste", "opening_hours": "11:30-22:00", "website": "https://royal-taste.dk/"}}, {"type": "node", "id": 6544817566, "lat": 55.8233344, "lon": 12.0125547}, {"type": "node", "id": 6544817567, "lat": 55.8232249, "lon": 12.0126469}, {"type": "node", "id": 6544817568, "lat": 55.8233448, "lon": 12.0127454}, {"type": "node", "id": 6544817569, "lat": 55.823326, "lon": 12.0127416}, {"type": "node", "id": 6544817571, "lat": 55.8231219, "lon": 12.0126264}, {"type": "node", "id": 6544817572, "lat": 55.8233377, "lon": 12.0125554}, {"type": "node", "id": 6668264277, "lat": 55.9656553, "lon": 11.8469701, "tags": {"amenity": "restaurant", "fvst:navnelbnr": "765775", "name": "Knud", "phone": "+45 40483390", "website": "https://www.knud.biz/"}}, {"type": "node", "id": 6680612952, "lat": 56.0581117, "lon": 12.0789007, "tags": {"amenity": "restaurant", "cuisine": "seafood; regional", "fvst:navnelbnr": "761869", "name": "Tisvilde Bio Bistro", "phone": "+45 48704191", "website": "https://bistrotisvilde.dk/"}}, {"type": "node", "id": 6698116604, "lat": 56.1072638, "lon": 12.3446557, "tags": {"amenity": "restaurant", "cuisine": "regional", "fvst:navnelbnr": "798799", "name": "Restaurant Passeb\u00e6kgaard", "phone": "+45 31668507", "website": "https://www.restaurantpassebaekgaard.com/"}}, {"type": "node", "id": 6726221587, "lat": 55.922257, "lon": 12.0716491}, {"type": "node", "id": 6726221588, "lat": 55.9222193, "lon": 12.0717906}, {"type": "node", "id": 6726221589, "lat": 55.9222466, "lon": 12.0718138}, {"type": "node", "id": 6726221590, "lat": 55.9221556, "lon": 12.0720777}, {"type": "node", "id": 6726221591, "lat": 55.922052, "lon": 12.0719899}, {"type": "node", "id": 6726221592, "lat": 55.9220697, "lon": 12.0719236}, {"type": "node", "id": 6726221594, "lat": 55.9221463, "lon": 12.0717448}, {"type": "node", "id": 6726221595, "lat": 55.9221571, "lon": 12.0717539}, {"type": "node", "id": 6726221600, "lat": 55.9221983, "lon": 12.0715993}, {"type": "node", "id": 6726221605, "lat": 55.922182, "lon": 12.0720564}, {"type": "node", "id": 6726221610, "lat": 55.9222244, "lon": 12.0717716}, {"type": "node", "id": 6726235989, "lat": 55.9221651, "lon": 12.0720421}, {"type": "node", "id": 6762133933, "lat": 56.0588249, "lon": 12.0696467, "tags": {"amenity": "restaurant", "fvst:navnelbnr": "789446", "name": "Tisvilde Strandhotel", "phone": "+45 48707119", "website": "https://strand-hotel.dk/restauranten/"}}, {"type": "node", "id": 7185546750, "lat": 55.9206552, "lon": 12.2991941, "tags": {"amenity": "restaurant", "fvst:fixme": "fvst position missing, fixed from overpassturbo/osak", "fvst:name": "FREDERIKSBORGCENTRETS RESTAURANTER Cafe 1", "fvst:navnelbnr": "920222", "name": "Cafe 1"}}, {"type": "node", "id": 7195444900, "lat": 55.9206158, "lon": 12.2990888, "tags": {"amenity": "restaurant", "fvst:fixme": "fvst position missing, fixed from overpassturbo/osak", "fvst:name": "FREDERIKSBORGCENTRETS RESTAURANTER Cafe 2", "fvst:navnelbnr": "920226", "name": "Cafe 2", "opening_hours": "Mo-Fr 09:00-14:00"}}, {"type": "node", "id": 7289816822, "lat": 56.12541, "lon": 12.303057, "tags": {"amenity": "restaurant", "cuisine": "italian", "fvst:fixme": "fvst position missing, fixed from overpassturbo/osak", "fvst:navnelbnr": "931723", "name": "Mi Piace"}}, {"type": "node", "id": 7687781437, "lat": 55.964714, "lon": 11.847617, "tags": {"amenity": "restaurant", "fvst:fixme": "fvst position missing, fixed from overpassturbo/osak", "fvst:navnelbnr": "934854", "name": "Molen", "opening_hours": "10:30-22:00", "phone": "+45 31193132"}}, {"type": "node", "id": 8076203791, "lat": 55.928952, "lon": 12.300206, "tags": {"amenity": "restaurant", "cuisine": "regional", "fvst:fixme": "fvst position missing, fixed from overpassturbo/osak", "fvst:navnelbnr": "955240", "name": "Restaurant Teddy /By Bj\u00f8rn", "opening_hours": "12:00-15:00; Th-Sa 12:00-15:00,17:30-22:00; Su-Mo off", "phone": "+45 53787971", "website": "https://restaurantteddy.dk/"}}, {"type": "node", "id": 8087849739, "lat": 55.930704, "lon": 12.306164, "tags": {"amenity": "restaurant", "cuisine": "vietnamese", "fvst:fixme": "fvst position missing, fixed from overpassturbo/osak", "fvst:navnelbnr": "955552", "name": "T\u00f4 T\u00f4 Kitchen", "opening_hours": "15:30-21:30; Sa-Su 11:30-21:30", "phone": "+45 81354888", "website": "https://www.latre.dk/da/toto-kitchen-da/"}}, {"type": "way", "id": 139709425, "nodes": [1531096347, 1531097007, 1531096837, 1531096806, 1531096544, 6544817571, 6544817567, 1531096991, 1531096967, 1531096316, 1531096835, 6544817566, 6544817572, 6544817569, 6544817568, 1531096856, 1531096347], "tags": {"amenity": "restaurant", "building": "yes", "cuisine": "steak", "fvst:navnelbnr": "932474", "name": "Gerlev Kro og Hotel", "opening_hours": "12:00-21:00", "phone": "+45 47 52 21 74", "tourism": "hotel", "website": "https://www.gerlev-kro.dk/"}}, {"type": "way", "id": 140832955, "nodes": [1542078985, 5809477185, 5809477186, 1542079039, 1542079196, 1542079031, 1542078985], "tags": {"alt_name": "Kulhuskroen", "amenity": "restaurant", "building": "yes", "cuisine": "danish", "fvst:navnelbnr": "92568", "name": "Kulhuse Kro", "opening_hours": "May-Aug We-Fr 17:30-20:30; Sa 12:00-20:30; Su 12:00-16:00", "phone": "+45 47530125", "website": "http://www.kulhusekro.dk/"}}, {"type": "way", "id": 182811829, "nodes": [1931803458, 1931803456, 1931803442, 1931803443, 1931803447, 1931803448, 1931803444, 1931803445, 1931803449, 1931803440, 1931803441, 1931803453, 1931803450, 1931803452, 1931803459, 1931803460, 1931803463, 1931803461, 1931803457, 1931803454, 2413494952, 1931803446, 1931803451, 1931803458], "tags": {"alt_name": "Elleg\u00e5rden", "amenity": "restaurant", "building": "yes", "fvst:fixme": "fvst:no_pos", "fvst:navnelbnr": "948621", "name": "Ellegaarden", "note": "kitchen opening hours", "opening_hours": "Th-Su 12:00-21:00", "phone": "+45 48286693", "website": "https://ellegaarden.dk/"}}, {"type": "way", "id": 195757189, "nodes": [2061747829, 3193278399, 2061747818, 2061747817, 2061747823, 2061747824, 2061747806, 2061747808, 3193278400, 3193278401, 2061747829], "tags": {"amenity": "restaurant", "building": "yes", "cuisine": "regional", "fvst:navnelbnr": "579885", "name": "Skipperhuset", "note": "kitchen closes 1 hour earlier", "opening_hours": "Tu-Fr 12:00-16:00; Sa-Su 12:00-17:00", "phone": "+45 48481012", "website": "http://www.skipperhuset-fredensborg.dk/"}}, {"type": "way", "id": 247030904, "nodes": [2539745229, 2539745227, 2539745233, 2539745231, 2539745219, 2539745215, 2539745212, 2539745189, 2539745192, 2539745209, 2539745210, 2539745214, 2539745213, 2539745222, 2539745224, 2539745229], "tags": {"amenity": "restaurant", "building": "yes", "fvst:navnelbnr": "923779", "name": "H. C. Andersen Huset", "opening_hours": "Th 17:30-24:00; Fr-Sa 12:00-24:00; Su 12:00-24:00; Dec 25 12:00-18:00; Dec 26 12:00-24:00", "phone": "+45 47747333", "website": "https://www.hcandersen-huset.dk/"}}, {"type": "way", "id": 715711229, "nodes": [6726221587, 6726221610, 6726221588, 6726221589, 6726221605, 6726235989, 6726221590, 6726221591, 6726221592, 3922063037, 6726221594, 6726221595, 6726221600, 6726221587], "tags": {"amenity": "restaurant", "building": "yes", "cuisine": "regional", "fvst:navnelbnr": "565753", "name": "\u00d8lsted Kro", "opening_hours": "18:00-22:00; Su off", "website": "https://olstedkro.dk/"}}]}